$PAMTR,COMP,Q,100,100,100,0,0,0,0,8,-30*11
$PAMTR,POST,0,0,0,0,0,0,,0,0,0,0,0,0,,,0,PB200*52
$PAMTR,COMP,Q,100,100,100,0,0,0,0,8,-30*11
$PAMTR,INFO*78
$PAMTT,Weather Station model PB200
$PAMTT,Copyright (C) 2005-2009 AIRMAR Technology, Inc.  All Rights Reserved.
$PAMTT,POST,0,0,0,0,0,0,,0,0,0,0,0,0,,,0,PB200*54
$PAMTT,QV,,6,0,,1.600,1.603,1.001,1.603,4850334000,1.11*64
$PAMTT,QPS,44-802-2-01,1871339*30
$HCHDG,266.5,0.0,E,0.7,W*50
$WIMWV,159.8,R,3.5,N,A*20
$HCHDG,266.7,0.0,E,0.7,W*52
$YXXDR,A,-3.0,D,PTCH,A,3.2,D,ROLL*72
$WIMWV,159.8,R,3.5,N,A*20
$HCHDG,266.7,0.0,E,0.7,W*52
$WIMDA,29.9139,I,1.0130,B,28.6,C,,,,,,,64.8,T,65.5,M,3.4,N,1.7,M*21
$TIROT,29.3,A*03
$WIMWV,157.6,R,3.4,N,A*21
$HCHDG,266.6,0.0,E,0.7,W*53
$YXXDR,A,-3.0,D,PTCH,A,3.2,D,ROLL*72
$GPRMC,092638,A,3925.6332,N,00019.8648,W,0.0,241.5,200717,0.7,W,A*18
$GPZDA,092638,20,07,2017,00,00*4F
$WIMWV,153.3,R,3.2,N,A*26
$PAMTR,HEATER,M,0*04
$HCHDG,266.5,0.0,E,0.7,W*50
$WIMWV,155.7,R,2.9,N,A*2E
$HCHDG,266.5,0.0,E,0.7,W*50
$WIMWV,154.2,R,2.8,N,A*2B
$YXXDR,A,-3.0,D,PTCH,A,3.2,D,ROLL*72
$HCHDG,266.6,0.0,E,0.7,W*53
$WIMWV,155.2,R,2.9,N,A*2B
$WIMDA,29.9139,I,1.0130,B,28.7,C,,,,,,,61.1,T,61.8,M,2.9,N,1.5,M*2B
$TIROT,11.7,A*0C
$HCHDG,266.6,0.0,E,0.7,W*53
$WIMWV,156.1,R,3.2,N,A*21
$YXXDR,A,-3.0,D,PTCH,A,3.2,D,ROLL*72
$GPRMC,092642,A,3925.6331,N,00019.8647,W,0.0,240.9,200717,0.7,W,A*14
$GPZDA,092642,20,07,2017,00,00*42
$HCHDG,266.7,0.0,E,0.7,W*52
$WIMWV,157.9,R,3.3,N,A*29
$HCHDG,266.7,0.0,E,0.7,W*52
$WIMWV,159.5,R,3.6,N,A*2E
$YXXDR,A,-3.0,D,PTCH,A,3.2,D,ROLL*72
$WIMDA,29.9139,I,1.0130,B,28.7,C,,,,,,,65.3,T,66.0,M,3.6,N,1.9,M*20
$GPGGA,092643,3925.6330,N,00019.8647,W,1,9,0.9,3.1,M,,,,*35
$TIROT,17.5,A*08
$YXXDR,C,,C,WCHR,C,,C,WCHT,C,,C,HINX,P,1.0127,B,STNP*4E
$HCHDG,266.8,0.0,E,0.7,W*5D
$WIMWV,161.0,R,3.8,N,A*2E
$HCHDG,266.8,0.0,E,0.7,W*5D
$WIMWV,161.0,R,4.0,N,A*21
$YXXDR,A,-3.0,D,PTCH,A,3.2,D,ROLL*72
$GPRMC,092644,A,3925.6330,N,00019.8647,W,0.0,240.0,200717,0.7,W,A*1A
$GPZDA,092644,20,07,2017,00,00*44
$HCHDG,266.8,0.0,E,0.7,W*5D
$WIMWV,160.4,R,4.1,N,A*25
$WIMDA,29.9139,I,1.0130,B,28.7,C,,,,,,,66.5,T,67.2,M,4.1,N,2.1,M*2D
$GPGSV,3,1,9,2,20,47,35,12,18,85,32,14,30,250,35,21,19,176,41*78
$GPGSV,,2,,25,53,66,42,26,17,288,33,29,82,24,41,31,53,307,39*44
$GPGSV,,3,,32,21,228,37*74
$TIROT,23.4,A*0E
$HCHDG,266.8,0.0,E,0.7,W*5D
$WIMWV,159.1,R,4.1,N,A*2A
$YXXDR,A,-3.0,D,PTCH,A,3.2,D,ROLL*72
$HCHDG,266.8,0.0,E,0.7,W*5D
$WIMWV,157.5,R,4.0,N,A*21
$HCHDG,266.8,0.0,E,0.7,W*5D
$WIMWV,156.7,R,3.9,N,A*2C
$WIMDA,29.9139,I,1.0130,B,28.7,C,,,,,,,62.7,T,63.4,M,3.9,N,2.0,M*27
$GPRMC,092646,A,3925.6330,N,00019.8646,W,0.1,239.3,200717,0.7,W,A*15
$YXXDR,A,-2.9,D,PTCH,A,3.1,D,ROLL*79
$GPZDA,092646,20,07,2017,00,00*46
$GPGGA,092646,3925.6330,N,00019.8646,W,1,9,0.9,3.2,M,,,,*32
$TIROT,5.8,A*36
$HCHDG,266.9,0.0,E,0.7,W*5C
$WIMWV,157.9,R,3.8,N,A*22
$YXXDR,C,,C,WCHR,C,,C,WCHT,C,,C,HINX,P,1.0127,B,STNP*4E
$HCHDG,266.8,0.0,E,0.7,W*5D
$WIMWV,158.3,R,3.8,N,A*27
$YXXDR,A,-2.8,D,PTCH,A,3.2,D,ROLL*7B
$WIMDA,29.9139,I,1.0130,B,28.7,C,,,,,,,64.3,T,65.0,M,3.8,N,2.0,M*26
$HCHDG,266.8,0.0,E,0.7,W*5D
$WIMWV,157.9,R,3.8,N,A*22
$TIROT,5.8,A*36
$HCHDG,266.7,0.0,E,0.7,W*52
$WIMWV,158.7,R,3.9,N,A*22
$GPRMC,092648,A,3925.6330,N,00019.8646,W,0.0,239.5,200717,0.7,W,A*1C
$YXXDR,A,-3.0,D,PTCH,A,3.2,D,ROLL*72
$GPZDA,092648,20,07,2017,00,00*48
$HCHDG,266.7,0.0,E,0.7,W*52
$WIMWV,158.4,R,4.0,N,A*2F
$WIMDA,29.9139,I,1.0130,B,28.6,C,,,,,,,64.3,T,65.0,M,3.9,N,2.0,M*26
$HCHDG,266.7,0.0,E,0.7,W*52
$WIMWV,158.2,R,4.1,N,A*28
$GPGSV,3,1,9,2,20,47,37,12,18,85,33,14,30,250,35,21,19,176,41*7B
$GPGSV,,2,,25,53,66,43,26,17,288,32,29,82,24,42,31,53,307,40*49
$GPGSV,,3,,32,21,228,36*75
$YXXDR,A,-2.9,D,PTCH,A,3.1,D,ROLL*79
$GPGGA,092649,3925.6330,N,00019.8646,W,1,9,0.9,3.3,M,,,,*3C
$HCHDG,266.6,0.0,E,0.7,W*53
$WIMWV,159.5,R,4.2,N,A*2D
$TIROT,11.7,A*0C
$YXXDR,C,,C,WCHR,C,,C,WCHT,C,,C,HINX,P,1.0127,B,STNP*4E
$GPRMC,092650,A,3925.6330,N,00019.8646,W,0.0,238.8,200717,0.7,W,A*19
$HCHDG,266.6,0.0,E,0.7,W*53
$WIMWV,158.8,R,4.1,N,A*22
$GPZDA,092650,20,07,2017,00,00*41
$YXXDR,A,-3.0,D,PTCH,A,3.2,D,ROLL*72
$WIMDA,29.9139,I,1.0130,B,28.7,C,,,,,,,64.3,T,65.0,M,4.0,N,2.1,M*28
$HCHDG,266.6,0.0,E,0.7,W*53
$WIMWV,157.8,R,4.0,N,A*2C
$HCHDG,266.5,0.0,E,0.7,W*50
$WIMWV,157.1,R,4.0,N,A*25
$TIROT,11.7,A*0C
$YXXDR,A,-2.8,D,PTCH,A,3.2,D,ROLL*7B
$HCHDG,266.5,0.0,E,0.7,W*50
$WIMWV,156.3,R,3.9,N,A*28
$WIMDA,29.9168,I,1.0131,B,28.7,C,,,,,,,61.0,T,61.7,M,3.8,N,2.0,M*26
$GPRMC,092652,A,3925.6330,N,00019.8646,W,0.0,238.5,200717,0.7,W,A*16
$HCHDG,266.5,0.0,E,0.7,W*50
$WIMWV,155.5,R,3.9,N,A*2D
$GPZDA,092652,20,07,2017,00,00*43
$YXXDR,A,-3.0,D,PTCH,A,3.4,D,ROLL*74
$GPGGA,092652,3925.6330,N,00019.8646,W,1,8,1.0,3.4,M,,,,*38
$HCHDG,266.5,0.0,E,0.7,W*50
$WIMWV,154.6,R,4.0,N,A*21
$TIROT,17.5,A*08
$YXXDR,C,,C,WCHR,C,,C,WCHT,C,,C,HINX,P,1.0127,B,STNP*4E
$HCHDG,266.5,0.0,E,0.7,W*50
$WIMWV,152.8,R,4.1,N,A*28
$YXXDR,A,-3.0,D,PTCH,A,3.4,D,ROLL*74
$WIMDA,29.9168,I,1.0131,B,28.7,C,,,,,,,58.7,T,59.4,M,3.9,N,2.0,M*22
$GPGSV,3,1,9,2,20,47,36,12,18,85,28,14,30,250,35,21,19,176,40*71
$GPGSV,,2,,25,53,66,44,26,17,288,33,29,82,24,42,31,53,307,39*41
$GPGSV,,3,,32,21,228,38*7B
$HCHDG,266.5,0.0,E,0.7,W*50
$WIMWV,152.8,R,4.1,N,A*28
$GPRMC,092654,A,3925.6330,N,00019.8645,W,0.0,238.6,200717,0.7,W,A*10
$TIROT,11.7,A*0C
$GPZDA,092654,20,07,2017,00,00*45
$HCHDG,266.4,0.0,E,0.7,W*51
$WIMWV,150.0,R,4.2,N,A*21
$YXXDR,A,-2.8,D,PTCH,A,3.2,D,ROLL*7B
$HCHDG,266.5,0.0,E,0.7,W*50
$WIMWV,148.6,R,4.1,N,A*2D
$WIMDA,29.9168,I,1.0131,B,28.7,C,,,,,,,54.3,T,55.0,M,4.1,N,2.1,M*2C
$HCHDG,266.4,0.0,E,0.7,W*51
$WIMWV,148.6,R,4.1,N,A*2D
$YXXDR,A,-3.0,D,PTCH,A,3.2,D,ROLL*72
$GPGGA,092655,3925.6330,N,00019.8645,W,1,8,1.0,3.5,M,,,,*3D
$TIROT,29.3,A*03
$YXXDR,C,,C,WCHR,C,,C,WCHT,C,,C,HINX,P,1.0127,B,STNP*4E
$HCHDG,266.4,0.0,E,0.7,W*51
$WIMWV,149.5,R,4.1,N,A*2F
$GPRMC,092656,A,3925.6329,N,00019.8646,W,0.0,238.3,200717,0.7,W,A*1C
$GPZDA,092656,20,07,2017,00,00*47
$HCHDG,266.3,0.0,E,0.7,W*56
$WIMWV,148.2,R,4.2,N,A*2A
$YXXDR,A,-3.0,D,PTCH,A,3.4,D,ROLL*74
$WIMDA,29.9168,I,1.0131,B,28.7,C,,,,,,,53.8,T,54.5,M,4.1,N,2.1,M*24
$HCHDG,266.4,0.0,E,0.7,W*51
$WIMWV,147.9,R,4.3,N,A*2F
$TIROT,11.7,A*0C
$HCHDG,266.4,0.0,E,0.7,W*51
$WIMWV,149.1,R,4.5,N,A*2F
$YXXDR,A,-2.8,D,PTCH,A,3.4,D,ROLL*7D
$HCHDG,266.4,0.0,E,0.7,W*51
$WIMWV,150.0,R,4.7,N,A*24
$WIMDA,29.9168,I,1.0131,B,28.7,C,,,,,,,55.6,T,56.3,M,4.6,N,2.4,M*2A
$GPRMC,092658,A,3925.6329,N,00019.8650,W,0.0,238.3,200717,0.7,W,A*15
$GPGSV,3,1,9,2,20,47,36,12,18,85,30,14,30,250,37,21,19,176,40*7A
$GPGSV,,2,,25,53,66,43,26,17,288,36,29,82,24,41,31,53,307,39*40
$GPGSV,,3,,32,21,228,36*75
$HCHDG,266.5,0.0,E,0.7,W*50
$WIMWV,148.8,R,4.8,N,A*2A
$GPZDA,092658,20,07,2017,00,00*49
$YXXDR,A,-3.0,D,PTCH,A,3.4,D,ROLL*74
$GPGGA,092658,3925.6329,N,00019.8650,W,1,9,0.9,3.7,M,,,,*37
$TIROT,11.7,A*0C
$YXXDR,C,,C,WCHR,C,,C,WCHT,C,,C,HINX,P,1.0127,B,STNP*4E
$HCHDG,266.6,0.0,E,0.7,W*53
$WIMWV,147.0,R,4.6,N,A*23
$WIMDA,29.9139,I,1.0130,B,28.7,C,,,,,,,51.7,T,52.4,M,4.5,N,2.3,M*2D
$HCHDG,266.6,0.0,E,0.7,W*53
$WIMWV,145.6,R,4.5,N,A*24
$YXXDR,A,-3.0,D,PTCH,A,3.2,D,ROLL*72
$HCHDG,266.6,0.0,E,0.7,W*53
$WIMWV,146.1,R,4.4,N,A*21
$GPRMC,092700,A,3925.6329,N,00019.8653,W,0.0,238.2,200717,0.7,W,A*1B
$TIROT,23.4,A*0E
$HCHDG,266.7,0.0,E,0.7,W*52
$WIMWV,146.2,R,4.4,N,A*22
$GPZDA,092700,20,07,2017,00,00*45
$YXXDR,A,-3.0,D,PTCH,A,3.2,D,ROLL*72
$WIMDA,29.9139,I,1.0130,B,28.7,C,,,,,,,52.3,T,53.0,M,4.4,N,2.3,M*2E
$HCHDG,266.7,0.0,E,0.7,W*52
$WIMWV,146.5,R,4.4,N,A*25
$HCHDG,266.8,0.0,E,0.7,W*5D
$WIMWV,147.7,R,4.4,N,A*26
$YXXDR,A,-3.0,D,PTCH,A,3.2,D,ROLL*72
$GPGGA,092701,3925.6328,N,00019.8655,W,1,9,0.9,3.9,M,,,,*30
$TIROT,17.5,A*08
$YXXDR,C,,C,WCHR,C,,C,WCHT,C,,C,HINX,P,1.0126,B,STNP*4F
$HCHDG,266.8,0.0,E,0.7,W*5D
$WIMWV,151.3,R,4.5,N,A*24
$GPRMC,092702,A,3925.6327,N,00019.8657,W,0.0,238.1,200717,0.7,W,A*10
$WIMDA,29.9139,I,1.0130,B,28.7,C,,,,,,,59.5,T,60.2,M,4.5,N,2.3,M*20
$GPZDA,092702,20,07,2017,00,00*47
$HCHDG,266.8,0.0,E,0.7,W*5D
$WIMWV,154.0,R,4.5,N,A*22
$YXXDR,A,-2.8,D,PTCH,A,3.4,D,ROLL*7D
$GPGSV,3,1,9,2,20,47,34,12,18,85,34,14,30,250,34,21,19,176,40*7F
$GPGSV,,2,,25,53,66,42,26,17,288,35,29,82,24,42,31,53,307,40*4F
$GPGSV,,3,,32,21,228,38*7B
$HCHDG,266.9,0.0,E,0.7,W*5C
$WIMWV,155.4,R,4.5,N,A*27
$TIROT,5.8,A*36
$HCHDG,266.9,0.0,E,0.7,W*5C
$WIMWV,158.4,R,4.4,N,A*2B
$YXXDR,A,-3.0,D,PTCH,A,3.2,D,ROLL*72
$WIMDA,29.9168,I,1.0131,B,28.7,C,,,,,,,65.1,T,65.8,M,4.3,N,2.2,M*26
$HCHDG,267.0,0.0,E,0.7,W*54
$GPRMC,092704,A,3925.6327,N,00019.8659,W,0.0,238.4,200717,0.7,W,A*1D
$WIMWV,157.6,R,4.4,N,A*26
$GPZDA,092704,20,07,2017,00,00*41
$HCHDG,267.0,0.0,E,0.7,W*54
$GPGGA,092704,3925.6327,N,00019.8659,W,1,9,0.9,4.4,M,,,,*3C
$WIMWV,155.5,R,4.3,N,A*20
$YXXDR,A,-3.0,D,PTCH,A,3.2,D,ROLL*72
$TIROT,17.5,A*08
$YXXDR,C,,C,WCHR,C,,C,WCHT,C,,C,HINX,P,1.0126,B,STNP*4F
$HCHDG,267.0,0.0,E,0.7,W*54
$WIMWV,155.7,R,4.4,N,A*25
$WIMDA,29.9168,I,1.0131,B,28.7,C,,,,,,,63.5,T,64.2,M,4.3,N,2.2,M*2F
$HCHDG,267.0,0.0,E,0.7,W*54
$WIMWV,158.5,R,4.4,N,A*2A
$YXXDR,A,-3.0,D,PTCH,A,3.2,D,ROLL*72
$HCHDG,267.0,0.0,E,0.7,W*54
$GPRMC,092706,A,3925.6327,N,00019.8659,W,0.0,238.4,200717,0.7,W,A*1F
$WIMWV,160.9,R,4.3,N,A*2A
$TIROT,17.5,A*08
$GPZDA,092706,20,07,2017,00,00*43
$HCHDG,267.1,0.0,E,0.7,W*55
$WIMWV,161.8,R,4.1,N,A*28
$YXXDR,A,-3.0,D,PTCH,A,3.2,D,ROLL*72
$WIMDA,29.9168,I,1.0131,B,28.7,C,,,,,,,69.2,T,69.9,M,4.0,N,2.1,M*24
$HCHDG,267.1,0.0,E,0.7,W*55
$WIMWV,162.7,R,4.0,N,A*25
$GPGSV,3,1,9,2,20,47,36,12,18,85,28,14,30,250,36,21,19,176,41*73
$GPGSV,,2,,25,53,66,43,26,17,288,35,29,82,24,41,31,53,307,40*4D
$GPGSV,,3,,32,21,228,38*7B
$HCHDG,267.0,0.0,E,0.7,W*54
$GPGGA,092707,3925.6327,N,00019.8657,W,1,8,1.0,4.7,M,,,,*3B
$WIMWV,160.5,R,3.9,N,A*2B
$YXXDR,A,-3.0,D,PTCH,A,3.4,D,ROLL*74
$TIROT,23.4,A*0E
$YXXDR,C,,C,WCHR,C,,C,WCHT,C,,C,HINX,P,1.0126,B,STNP*4F
$HCHDG,267.0,0.0,E,0.7,W*54
$GPRMC,092708,A,3925.6327,N,00019.8655,W,0.0,238.8,200717,0.7,W,A*11
$WIMWV,158.8,R,3.8,N,A*2C
$GPZDA,092708,20,07,2017,00,00*4D
$WIMDA,29.9168,I,1.0131,B,28.7,C,,,,,,,65.0,T,65.7,M,3.8,N,2.0,M*26
$HCHDG,266.9,0.0,E,0.7,W*5C
$WIMWV,158.9,R,3.7,N,A*22
$YXXDR,A,-3.0,D,PTCH,A,3.2,D,ROLL*72
$HCHDG,266.9,0.0,E,0.7,W*5C
$WIMWV,160.7,R,3.6,N,A*26
$TIROT,11.7,A*0C
$HCHDG,266.8,0.0,E,0.7,W*5D
$WIMWV,160.9,R,3.6,N,A*28
$YXXDR,A,-3.0,D,PTCH,A,3.2,D,ROLL*72
$WIMDA,29.9168,I,1.0131,B,28.7,C,,,,,,,66.5,T,67.2,M,3.7,N,1.9,M*22
$HCHDG,266.8,0.0,E,0.7,W*5D
$GPRMC,092710,A,3925.6327,N,00019.8651,W,0.0,238.7,200717,0.7,W,A*13
$WIMWV,160.5,R,3.7,N,A*25
$GPZDA,092710,20,07,2017,00,00*44
$HCHDG,266.8,0.0,E,0.7,W*5D
$GPGGA,092710,3925.6327,N,00019.8651,W,1,8,1.0,4.9,M,,,,*35
$WIMWV,159.4,R,3.9,N,A*20
$YXXDR,A,-3.0,D,PTCH,A,3.2,D,ROLL*72
$TIROT,17.5,A*08
$YXXDR,C,,C,WCHR,C,,C,WCHT,C,,C,HINX,P,1.0126,B,STNP*4F
$HCHDG,266.7,0.0,E,0.7,W*52
$WIMWV,159.9,R,3.9,N,A*2D
$WIMDA,29.9168,I,1.0131,B,28.7,C,,,,,,,66.0,T,66.7,M,3.8,N,2.0,M*26
$HCHDG,266.7,0.0,E,0.7,W*52
$WIMWV,160.0,R,3.9,N,A*2E
$YXXDR,A,-3.0,D,PTCH,A,3.4,D,ROLL*74
$GPGSV,3,1,9,2,20,47,37,12,18,85,28,14,30,249,36,21,19,176,41*7A
$GPGSV,,2,,25,53,66,43,26,17,289,35,29,82,24,41,31,53,306,39*43
$GPGSV,,3,,32,21,228,34*77
$HCHDG,266.7,0.0,E,0.7,W*52
$GPRMC,092712,A,3925.6327,N,00019.8649,W,0.0,239.0,200717,0.7,W,A*1E
$WIMWV,161.9,R,3.7,N,A*28
$TIROT,5.8,A*36
$GPZDA,092712,20,07,2017,00,00*46
$HCHDG,266.7,0.0,E,0.7,W*52
$WIMWV,161.3,R,3.7,N,A*22
$YXXDR,A,-3.0,D,PTCH,A,3.4,D,ROLL*74
$WIMDA,29.9168,I,1.0131,B,28.7,C,,,,,,,66.9,T,67.6,M,3.6,N,1.9,M*2B
$HCHDG,266.6,0.0,E,0.7,W*53
$WIMWV,160.7,R,3.6,N,A*26
$HCHDG,266.6,0.0,E,0.7,W*53
$GPGGA,092713,3925.6327,N,00019.8648,W,1,8,1.0,4.9,M,,,,*3E
$WIMWV,161.9,R,3.4,N,A*2B
$YXXDR,A,-2.8,D,PTCH,A,3.2,D,ROLL*7B
$TIROT,17.5,A*08
$YXXDR,C,,C,WCHR,C,,C,WCHT,C,,C,HINX,P,1.0125,B,STNP*4C
$HCHDG,266.5,0.0,E,0.7,W*50
$GPRMC,092714,A,3925.6326,N,00019.8647,W,0.0,239.2,200717,0.7,W,A*15
$WIMWV,163.0,R,3.4,N,A*20
$GPZDA,092714,20,07,2017,00,00*40
$WIMDA,29.9139,I,1.0130,B,28.7,C,,,,,,,69.5,T,70.2,M,3.4,N,1.7,M*23
$HCHDG,266.5,0.0,E,0.7,W*50
$WIMWV,164.1,R,3.3,N,A*21
$YXXDR,A,-2.8,D,PTCH,A,3.2,D,ROLL*7B
$HCHDG,266.6,0.0,E,0.7,W*53
$WIMWV,163.7,R,3.2,N,A*21
$TIROT,11.7,A*0C
$HCHDG,266.4,0.0,E,0.7,W*51
$WIMWV,165.2,R,3.2,N,A*22
$YXXDR,A,-3.0,D,PTCH,A,3.2,D,ROLL*72
$WIMDA,29.9139,I,1.0130,B,28.7,C,,,,,,,73.4,T,74.1,M,3.1,N,1.6,M*2A
$HCHDG,266.4,0.0,E,0.7,W*51
$GPRMC,092716,A,3925.6326,N,00019.8645,W,0.0,239.0,200717,0.7,W,A*17
$WIMWV,168.7,R,3.1,N,A*29
$GPGSV,3,1,9,2,20,47,36,12,18,85,28,14,30,249,37,21,19,176,40*7B
$GPGSV,,2,,25,53,66,43,26,17,289,34,29,82,24,42,31,53,306,40*4F
$GPGSV,,3,,32,21,228,37*74
$GPZDA,092716,20,07,2017,00,00*42
$HCHDG,266.4,0.0,E,0.7,W*51
$GPGGA,092716,3925.6326,N,00019.8645,W,1,8,1.0,4.9,M,,,,*37
$WIMWV,172.3,R,2.9,N,A*2F
$YXXDR,A,-3.0,D,PTCH,A,3.4,D,ROLL*74
$TIROT,29.3,A*03
$YXXDR,C,,C,WCHR,C,,C,WCHT,C,,C,HINX,P,1.0126,B,STNP*4F
$HCHDG,266.5,0.0,E,0.7,W*50
$WIMWV,173.6,R,2.9,N,A*2B
$WIMDA,29.9139,I,1.0130,B,28.7,C,,,,,,,79.4,T,80.1,M,2.8,N,1.4,M*21
$HCHDG,266.5,0.0,E,0.7,W*50
$WIMWV,174.5,R,2.7,N,A*21
$YXXDR,A,-2.8,D,PTCH,A,3.4,D,ROLL*7D
$GPRMC,092718,A,3925.6326,N,00019.8644,W,0.0,238.9,200717,0.7,W,A*10
$HCHDG,266.5,0.0,E,0.7,W*50
$WIMWV,176.4,R,2.7,N,A*22
$TIROT,17.5,A*08
$GPZDA,092718,20,07,2017,00,00*4C
$HCHDG,266.5,0.0,E,0.7,W*50
$WIMWV,176.8,R,2.6,N,A*2F
$YXXDR,A,-3.0,D,PTCH,A,3.2,D,ROLL*72
$WIMDA,29.9139,I,1.0130,B,28.7,C,,,,,,,81.5,T,82.2,M,2.7,N,1.4,M*29
$HCHDG,266.6,0.0,E,0.7,W*53
$WIMWV,176.8,R,2.7,N,A*2E
$GPGGA,092719,3925.6325,N,00019.8643,W,1,8,1.0,4.8,M,,,,*3C
$HCHDG,266.6,0.0,E,0.7,W*53
$WIMWV,176.7,R,2.7,N,A*21
$YXXDR,A,-3.0,D,PTCH,A,3.4,D,ROLL*74
$TIROT,17.5,A*08
$YXXDR,C,,C,WCHR,C,,C,WCHT,C,,C,HINX,P,1.0125,B,STNP*4C
$GPRMC,092720,A,3925.6325,N,00019.8643,W,0.0,238.7,200717,0.7,W,A*11
$HCHDG,266.6,0.0,E,0.7,W*53
$WIMWV,176.0,R,3.0,N,A*20
$GPZDA,092720,20,07,2017,00,00*47
$WIMDA,29.9139,I,1.0130,B,28.7,C,,,,,,,82.6,T,83.3,M,3.1,N,1.6,M*2C
$HCHDG,266.7,0.0,E,0.7,W*52
$GPGSV,3,1,9,2,20,47,36,12,18,85,30,14,30,249,36,21,19,176,40*73
$GPGSV,,2,,25,53,66,43,26,17,289,34,29,82,24,42,31,53,306,40*4F
$GPGSV,,3,,32,21,228,37*74
$WIMWV,176.4,R,3.1,N,A*25
$YXXDR,A,-3.0,D,PTCH,A,3.4,D,ROLL*74
$HCHDG,266.8,0.0,E,0.7,W*5D
$WIMWV,175.9,R,3.4,N,A*2E
$TIROT,5.8,A*36
$HCHDG,266.8,0.0,E,0.7,W*5D
$WIMWV,175.2,R,3.5,N,A*24
$YXXDR,A,-3.0,D,PTCH,A,3.2,D,ROLL*72
$WIMDA,29.9168,I,1.0131,B,28.7,C,,,,,,,81.2,T,81.9,M,3.5,N,1.8,M*2C
$GPRMC,092722,A,3925.6325,N,00019.8642,W,0.0,238.5,200717,0.7,W,A*10
$HCHDG,266.9,0.0,E,0.7,W*5C
$GPZDA,092722,20,07,2017,00,00*45
$WIMWV,172.2,R,3.5,N,A*23
$GPGGA,092722,3925.6325,N,00019.8642,W,1,8,1.0,4.5,M,,,,*38
$HCHDG,266.9,0.0,E,0.7,W*5C
$WIMWV,170.5,R,3.5,N,A*26
$YXXDR,A,-3.0,D,PTCH,A,3.2,D,ROLL*72
$TIROT,17.5,A*08
$YXXDR,C,,C,WCHR,C,,C,WCHT,C,,C,HINX,P,1.0126,B,STNP*4F
$HCHDG,266.9,0.0,E,0.7,W*5C
$WIMWV,169.0,R,3.4,N,A*2A
$WIMDA,29.9168,I,1.0131,B,28.7,C,,,,,,,75.1,T,75.8,M,3.3,N,1.7,M*27
$HCHDG,266.9,0.0,E,0.7,W*5C
$WIMWV,169.0,R,3.3,N,A*2D
$YXXDR,A,-3.0,D,PTCH,A,3.2,D,ROLL*72
$GPRMC,092724,A,3925.6324,N,00019.8641,W,0.0,238.5,200717,0.7,W,A*14
$HCHDG,266.9,0.0,E,0.7,W*5C
$GPZDA,092724,20,07,2017,00,00*43
$WIMWV,168.7,R,3.1,N,A*29
$TIROT,17.5,A*08
$HCHDG,266.9,0.0,E,0.7,W*5C
$WIMWV,167.1,R,3.1,N,A*20
$YXXDR,A,-2.8,D,PTCH,A,3.1,D,ROLL*78
$WIMDA,29.9139,I,1.0130,B,28.7,C,,,,,,,73.2,T,73.9,M,3.1,N,1.6,M*23
$HCHDG,266.9,0.0,E,0.7,W*5C
$GPGSV,3,1,9,2,20,47,37,12,18,85,29,14,30,249,34,21,19,176,42*7A
$GPGSV,,2,,25,53,66,44,26,17,289,34,29,82,24,42,31,53,306,40*48
$GPGSV,,3,,32,21,228,39*7A
$WIMWV,165.9,R,3.1,N,A*2A
$GPGGA,092725,3925.6324,N,00019.8640,W,1,8,1.0,4.3,M,,,,*3A
$HCHDG,266.9,0.0,E,0.7,W*5C
$WIMWV,163.7,R,3.3,N,A*20
$YXXDR,A,-3.0,D,PTCH,A,3.2,D,ROLL*72
$TIROT,5.8,A*36
$YXXDR,C,,C,WCHR,C,,C,WCHT,C,,C,HINX,P,1.0125,B,STNP*4C
$GPRMC,092726,A,3925.6324,N,00019.8640,W,0.0,238.6,200717,0.7,W,A*14
$HCHDG,266.9,0.0,E,0.7,W*5C
$GPZDA,092726,20,07,2017,00,00*41
$WIMWV,161.3,R,3.4,N,A*21
$WIMDA,29.9168,I,1.0131,B,28.7,C,,,,,,,67.4,T,68.1,M,3.4,N,1.7,M*23
$HCHDG,266.8,0.0,E,0.7,W*5D
$WIMWV,158.3,R,3.5,N,A*2A
$YXXDR,A,-3.0,D,PTCH,A,3.2,D,ROLL*72
$HCHDG,266.7,0.0,E,0.7,W*52
$WIMWV,157.5,R,3.5,N,A*23
$TIROT,-11.7,A*21
$HCHDG,266.6,0.0,E,0.7,W*53
$WIMWV,157.2,R,3.5,N,A*24
$YXXDR,A,-2.8,D,PTCH,A,3.1,D,ROLL*78
$WIMDA,29.9139,I,1.0130,B,28.7,C,,,,,,,62.8,T,63.5,M,3.5,N,1.8,M*2E
$GPRMC,092728,A,3925.6324,N,00019.8639,W,0.0,239.4,200717,0.7,W,A*17
$HCHDG,266.3,0.0,E,0.7,W*56
$GPZDA,092728,20,07,2017,00,00*4F
$WIMWV,157.5,R,3.5,N,A*23
$GPGGA,092728,3925.6324,N,00019.8639,W,1,8,1.0,4.1,M,,,,*3B
$HCHDG,266.3,0.0,E,0.7,W*56
$WIMWV,157.1,R,3.5,N,A*27
$YXXDR,A,-3.0,D,PTCH,A,3.2,D,ROLL*72
$TIROT,0.0,A*3B
$YXXDR,C,,C,WCHR,C,,C,WCHT,C,,C,HINX,P,1.0126,B,STNP*4F
$HCHDG,266.3,0.0,E,0.7,W*56
$WIMWV,157.2,R,3.4,N,A*25
$WIMDA,29.9139,I,1.0130,B,28.7,C,,,,,,,62.7,T,63.4,M,3.4,N,1.7,M*2E
$HCHDG,266.2,0.0,E,0.7,W*57
$GPGSV,3,1,9,2,20,47,38,12,18,85,0,14,30,249,34,21,19,176,41*4D
$GPGSV,,2,,25,53,66,44,26,17,289,35,29,82,24,41,31,53,306,39*44
$GPGSV,,3,,32,21,228,39*7A
$WIMWV,156.6,R,3.5,N,A*21
$YXXDR,A,-3.0,D,PTCH,A,3.2,D,ROLL*72
$GPRMC,092730,A,3925.6324,N,00019.8639,W,0.1,240.6,200717,0.7,W,A*13
$HCHDG,266.2,0.0,E,0.7,W*57
$GPZDA,092730,20,07,2017,00,00*46
$WIMWV,153.4,R,3.7,N,A*24
$TIROT,5.8,A*36
$HCHDG,266.2,0.0,E,0.7,W*57
$WIMWV,149.9,R,3.7,N,A*22
$WIMDA,29.9139,I,1.0130,B,28.7,C,,,,,,,55.2,T,55.9,M,3.7,N,1.9,M*2A
$YXXDR,A,-2.8,D,PTCH,A,3.2,D,ROLL*7B
$HCHDG,266.1,0.0,E,0.7,W*54
$WIMWV,149.9,R,3.7,N,A*22
$GPGGA,092731,3925.6324,N,00019.8639,W,1,8,1.0,3.9,M,,,,*3C
$HCHDG,266.1,0.0,E,0.7,W*54
$WIMWV,148.9,R,3.6,N,A*22
$TIROT,11.7,A*0C
$YXXDR,C,,C,WCHR,C,,C,WCHT,C,,C,HINX,P,1.0126,B,STNP*4F
$YXXDR,A,-3.0,D,PTCH,A,3.2,D,ROLL*72
$GPRMC,092732,A,3925.6323,N,00019.8639,W,0.0,240.4,200717,0.7,W,A*15
$HCHDG,266.1,0.0,E,0.7,W*54
$GPZDA,092732,20,07,2017,00,00*44
$WIMWV,149.5,R,3.6,N,A*2F
$WIMDA,29.9139,I,1.0130,B,28.7,C,,,,,,,54.8,T,55.5,M,3.6,N,1.9,M*2C
$HCHDG,266.1,0.0,E,0.7,W*54
$WIMWV,149.8,R,3.6,N,A*22
$YXXDR,A,-3.0,D,PTCH,A,3.4,D,ROLL*74
$HCHDG,266.2,0.0,E,0.7,W*57
$WIMWV,147.6,R,3.6,N,A*22
$TIROT,0.0,A*3B
$HCHDG,266.2,0.0,E,0.7,W*57
$WIMWV,146.1,R,3.5,N,A*27
$WIMDA,29.9139,I,1.0130,B,28.7,C,,,,,,,51.6,T,52.3,M,3.5,N,1.8,M*24
$YXXDR,A,-3.0,D,PTCH,A,3.2,D,ROLL*72
$GPRMC,092734,A,3925.6323,N,00019.8638,W,0.0,240.3,200717,0.7,W,A*15
$HCHDG,266.2,0.0,E,0.7,W*57
$GPGSV,3,1,9,2,20,47,34,12,18,85,0,14,30,249,37,21,19,176,41*42
$GPGSV,,2,,25,53,66,43,26,17,289,36,29,82,24,41,31,53,306,38*41
$GPGSV,,3,,32,21,228,40*74
$WIMWV,145.0,R,3.4,N,A*24
$GPZDA,092734,20,07,2017,00,00*42
$GPGGA,092734,3925.6323,N,00019.8638,W,1,8,1.0,3.7,M,,,,*31
$HCHDG,266.2,0.0,E,0.7,W*57
$TIROT,11.7,A*0C
$YXXDR,C,,C,WCHR,C,,C,WCHT,C,,C,HINX,P,1.0126,B,STNP*4F
$YXXDR,A,-3.0,D,PTCH,A,3.2,D,ROLL*72
$WIMWV,145.0,R,3.3,N,A*23
$HCHDG,266.2,0.0,E,0.7,W*57
$WIMDA,29.9139,I,1.0130,B,28.7,C,,,,,,,52.8,T,53.5,M,3.3,N,1.7,M*27
$WIMWV,150.4,R,3.4,N,A*24
$HCHDG,266.3,0.0,E,0.7,W*56
$YXXDR,A,-3.0,D,PTCH,A,3.4,D,ROLL*74
$WIMWV,153.4,R,3.4,N,A*27
$GPRMC,092736,A,3925.6323,N,00019.8638,W,0.0,241.0,200717,0.7,W,A*15
$HCHDG,266.4,0.0,E,0.7,W*51
$TIROT,35.1,A*0C
$GPZDA,092736,20,07,2017,00,00*40
$WIMWV,155.3,R,3.6,N,A*24
$HCHDG,266.4,0.0,E,0.7,W*51
$WIMDA,29.9139,I,1.0130,B,28.7,C,,,,,,,61.0,T,61.7,M,3.7,N,1.9,M*26
$YXXDR,A,-3.0,D,PTCH,A,3.2,D,ROLL*72
$WIMWV,156.5,R,3.7,N,A*20
$HCHDG,266.5,0.0,E,0.7,W*50
$WIMWV,160.3,R,3.5,N,A*21
$GPGGA,092737,3925.6323,N,00019.8638,W,1,8,1.0,3.6,M,,,,*33
$HCHDG,266.6,0.0,E,0.7,W*53
$TIROT,11.7,A*0C
$YXXDR,C,,C,WCHR,C,,C,WCHT,C,,C,HINX,P,1.0126,B,STNP*4F
$YXXDR,A,-3.0,D,PTCH,A,3.4,D,ROLL*74
$WIMWV,162.6,R,3.2,N,A*21
$GPRMC,092738,A,3925.6323,N,00019.8638,W,0.1,240.8,200717,0.7,W,A*13
$HCHDG,266.6,0.0,E,0.7,W*53
$WIMDA,29.9139,I,1.0130,B,28.7,C,,,,,,,68.9,T,69.6,M,3.2,N,1.6,M*25
$GPZDA,092738,20,07,2017,00,00*4E
$WIMWV,164.5,R,3.1,N,A*27
$GPGSV,3,1,9,2,20,47,36,12,18,85,0,14,30,249,36,21,19,176,42*42
$GPGSV,,2,,25,53,66,43,26,17,289,33,29,82,24,43,31,53,306,40*49
$GPGSV,,3,,32,21,228,38*7B
$HCHDG,266.7,0.0,E,0.7,W*52
$YXXDR,A,-3.0,D,PTCH,A,3.2,D,ROLL*72
$WIMWV,165.9,R,3.0,N,A*2B
$HCHDG,266.8,0.0,E,0.7,W*5D
$TIROT,5.8,A*36
$WIMWV,165.4,R,2.9,N,A*2E
$HCHDG,266.8,0.0,E,0.7,W*5D
$WIMDA,29.9139,I,1.0130,B,28.7,C,,,,,,,71.2,T,71.9,M,2.9,N,1.5,M*29
$YXXDR,A,-2.8,D,PTCH,A,3.2,D,ROLL*7B
$WIMWV,164.9,R,2.9,N,A*22
$GPRMC,092740,A,3925.6323,N,00019.8637,W,0.0,240.6,200717,0.7,W,A*1C
$GPZDA,092740,20,07,2017,00,00*41
$HCHDG,266.9,0.0,E,0.7,W*5C
$GPGGA,092740,3925.6323,N,00019.8637,W,1,8,1.0,3.5,M,,,,*3F
$WIMWV,164.4,R,2.9,N,A*2F
$HCHDG,266.9,0.0,E,0.7,W*5C
$TIROT,5.8,A*36
$YXXDR,C,,C,WCHR,C,,C,WCHT,C,,C,HINX,P,1.0127,B,STNP*4E
$YXXDR,A,-3.0,D,PTCH,A,3.2,D,ROLL*72
$WIMWV,163.8,R,2.9,N,A*24
$HCHDG,267.0,0.0,E,0.7,W*54
$WIMDA,29.9168,I,1.0131,B,28.7,C,,,,,,,70.4,T,71.1,M,2.9,N,1.5,M*23
$WIMWV,163.9,R,2.9,N,A*25
$HCHDG,267.0,0.0,E,0.7,W*54
$YXXDR,A,-3.0,D,PTCH,A,3.4,D,ROLL*74
$WIMWV,161.8,R,2.9,N,A*26
$GPRMC,092742,A,3925.6323,N,00019.8637,W,0.0,240.8,200717,0.7,W,A*10
$GPZDA,092742,20,07,2017,00,00*43
$HCHDG,267.0,0.0,E,0.7,W*54
$TIROT,0.0,A*3B
$WIMWV,161.9,R,2.9,N,A*27
$HCHDG,266.9,0.0,E,0.7,W*5C
$WIMDA,29.9168,I,1.0131,B,28.7,C,,,,,,,68.9,T,69.6,M,3.0,N,1.5,M*21
$YXXDR,A,-3.0,D,PTCH,A,3.2,D,ROLL*72
$WIMWV,162.7,R,3.1,N,A*23
$GPGSV,3,1,9,2,20,47,35,12,18,85,0,14,30,249,37,21,19,176,42*40
$GPGSV,,2,,25,53,66,43,26,17,289,32,29,82,24,42,31,53,306,40*49
$GPGSV,,3,,32,21,228,41*75
$HCHDG,267.0,0.0,E,0.7,W*54
$GPGGA,092743,3925.6323,N,00019.8637,W,1,8,1.0,3.4,M,,,,*3D
$WIMWV,162.0,R,3.3,N,A*26
$HCHDG,267.1,0.0,E,0.7,W*55
$TIROT,5.8,A*36
$YXXDR,C,,C,WCHR,C,,C,WCHT,C,,C,HINX,P,1.0127,B,STNP*4E
$YXXDR,A,-3.0,D,PTCH,A,3.2,D,ROLL*72
$WIMWV,162.4,R,3.4,N,A*25
$GPRMC,092744,A,3925.6324,N,00019.8637,W,0.0,240.8,200717,0.7,W,A*11
$GPZDA,092744,20,07,2017,00,00*45
$HCHDG,267.1,0.0,E,0.7,W*55
$WIMDA,29.9168,I,1.0131,B,28.7,C,,,,,,,69.8,T,70.5,M,3.3,N,1.7,M*2B
$WIMWV,163.3,R,3.4,N,A*23
$HCHDG,267.1,0.0,E,0.7,W*55
$YXXDR,A,-2.9,D,PTCH,A,3.1,D,ROLL*79
$WIMWV,164.6,R,3.7,N,A*22
$HCHDG,267.0,0.0,E,0.7,W*54
$TIROT,5.8,A*36
$WIMWV,165.0,R,4.0,N,A*25
$HCHDG,267.0,0.0,E,0.7,W*54
$WIMDA,29.9168,I,1.0131,B,28.7,C,,,,,,,72.1,T,72.8,M,4.2,N,2.2,M*27
$YXXDR,A,-2.9,D,PTCH,A,3.1,D,ROLL*79
$WIMWV,165.9,R,4.2,N,A*2E
$GPRMC,092746,A,3925.6324,N,00019.8637,W,0.0,241.0,200717,0.7,W,A*1A
$GPZDA,092746,20,07,2017,00,00*47
$HCHDG,267.0,0.0,E,0.7,W*54
$GPGGA,092746,3925.6324,N,00019.8637,W,1,8,1.0,3.4,M,,,,*3F
$WIMWV,164.4,R,4.4,N,A*24
$HCHDG,267.1,0.0,E,0.7,W*55
$TIROT,0.0,A*3B
$YXXDR,C,,C,WCHR,C,,C,WCHT,C,,C,HINX,P,1.0127,B,STNP*4E
$YXXDR,A,-3.0,D,PTCH,A,3.2,D,ROLL*72
$WIMWV,162.3,R,4.5,N,A*24
$HCHDG,267.0,0.0,E,0.7,W*54
$WIMDA,29.9168,I,1.0131,B,28.6,C,,,,,,,68.9,T,69.6,M,4.6,N,2.4,M*23
$WIMWV,163.7,R,4.6,N,A*22
$GPGSV,3,1,9,2,20,46,36,12,18,85,0,14,30,249,35,21,19,175,42*43
$GPGSV,,2,,25,53,66,43,26,18,289,30,29,82,24,42,31,53,306,39*4A
$GPGSV,,3,,32,21,228,41*75
$HCHDG,266.8,0.0,E,0.7,W*5D
$YXXDR,A,-3.0,D,PTCH,A,2.9,D,ROLL*78
$WIMWV,164.7,R,4.6,N,A*25
$GPRMC,092748,A,3925.6325,N,00019.8636,W,0.0,241.9,200717,0.7,W,A*1D
$GPZDA,092748,20,07,2017,00,00*49
$HCHDG,266.7,0.0,E,0.7,W*52
$TIROT,-5.8,A*1B
$WIMWV,162.7,R,4.7,N,A*22
$HCHDG,266.6,0.0,E,0.7,W*53
$WIMDA,29.9168,I,1.0131,B,28.6,C,,,,,,,67.1,T,67.8,M,4.7,N,2.4,M*25
$YXXDR,A,-3.0,D,PTCH,A,2.9,D,ROLL*78
$WIMWV,161.3,R,4.7,N,A*25
$HCHDG,266.4,0.0,E,0.7,W*51
$GPGGA,092749,3925.6325,N,00019.8636,W,1,8,1.0,3.4,M,,,,*30
$WIMWV,161.3,R,4.4,N,A*26
$HCHDG,266.3,0.0,E,0.7,W*56
$TIROT,-5.8,A*1B
$YXXDR,C,,C,WCHR,C,,C,WCHT,C,,C,HINX,P,1.0127,B,STNP*4E
$YXXDR,A,-3.0,D,PTCH,A,2.9,D,ROLL*78
$WIMWV,161.1,R,4.3,N,A*23
$GPRMC,092750,A,3925.6326,N,00019.8636,W,0.1,244.1,200717,0.7,W,A*1B
$GPZDA,092750,20,07,2017,00,00*40
$HCHDG,266.3,0.0,E,0.7,W*56
$WIMDA,29.9168,I,1.0131,B,28.6,C,,,,,,,67.7,T,68.4,M,4.2,N,2.2,M*23
$WIMWV,161.4,R,4.2,N,A*27
$HCHDG,266.1,0.0,E,0.7,W*54
$YXXDR,A,-3.0,D,PTCH,A,2.9,D,ROLL*78
$WIMWV,158.9,R,4.4,N,A*26
$HCHDG,266.0,0.0,E,0.7,W*55
$TIROT,-17.5,A*25
$WIMWV,158.5,R,4.4,N,A*2A
$HCHDG,265.8,0.0,E,0.7,W*5E
$WIMDA,29.9139,I,1.0130,B,28.7,C,,,,,,,64.0,T,64.7,M,4.4,N,2.3,M*2B
$YXXDR,A,-3.0,D,PTCH,A,3.2,D,ROLL*72
$WIMWV,159.8,R,4.4,N,A*26
$GPRMC,092752,A,3925.6326,N,00019.8636,W,0.1,245.8,200717,0.7,W,A*11
$GPGSV,3,1,9,2,20,46,37,12,18,85,0,14,30,249,37,21,19,175,40*42
$GPGSV,,2,,25,53,66,43,26,18,289,34,29,82,24,41,31,53,306,38*4C
$GPGSV,,3,,32,21,228,40*74
$HCHDG,265.6,0.0,E,0.7,W*50
$GPZDA,092752,20,07,2017,00,00*42
$WIMWV,159.9,R,4.3,N,A*20
$GPGGA,092752,3925.6326,N,00019.8636,W,1,8,1.0,3.3,M,,,,*3E
$TIROT,-11.7,A*21
$YXXDR,C,,C,WCHR,C,,C,WCHT,C,,C,HINX,P,1.0127,B,STNP*4E
$YXXDR,A,-3.0,D,PTCH,A,3.2,D,ROLL*72
$HCHDG,265.6,0.0,E,0.7,W*50
$WIMWV,159.0,R,4.3,N,A*29
$WIMDA,29.9139,I,1.0130,B,28.7,C,,,,,,,63.6,T,64.3,M,4.3,N,2.2,M*28
$HCHDG,265.5,0.0,E,0.7,W*53
$WIMWV,158.5,R,4.2,N,A*2C
$YXXDR,A,-2.9,D,PTCH,A,3.1,D,ROLL*79
$HCHDG,265.5,0.0,E,0.7,W*53
$GPRMC,092754,A,3925.6327,N,00019.8636,W,0.1,248.2,200717,0.7,W,A*11
$WIMWV,158.1,R,4.2,N,A*28
$TIROT,5.8,A*36
$GPZDA,092754,20,07,2017,00,00*44
$HCHDG,265.4,0.0,E,0.7,W*52
$WIMWV,157.9,R,4.2,N,A*2F
$WIMDA,29.9139,I,1.0130,B,28.7,C,,,,,,,62.2,T,62.9,M,4.3,N,2.2,M*21
$YXXDR,A,-2.9,D,PTCH,A,3.1,D,ROLL*79
$HCHDG,265.2,0.0,E,0.7,W*54
$WIMWV,157.5,R,4.4,N,A*25
$HCHDG,265.2,0.0,E,0.7,W*54
$WIMWV,156.1,R,4.4,N,A*20
$GPGGA,092755,3925.6327,N,00019.8636,W,1,8,1.0,3.2,M,,,,*39
$TIROT,0.0,A*3B
$YXXDR,C,,C,WCHR,C,,C,WCHT,C,,C,HINX,P,1.0127,B,STNP*4E
$YXXDR,A,-3.0,D,PTCH,A,3.2,D,ROLL*72
$HCHDG,265.1,0.0,E,0.7,W*57
$GPRMC,092756,A,3925.6327,N,00019.8636,W,0.0,249.5,200717,0.7,W,A*14
$WIMWV,155.7,R,4.4,N,A*25
$WIMDA,29.9139,I,1.0130,B,28.7,C,,,,,,,60.1,T,60.8,M,4.3,N,2.2,M*23
$GPZDA,092756,20,07,2017,00,00*46
$HCHDG,265.1,0.0,E,0.7,W*57
$WIMWV,155.1,R,4.3,N,A*24
$GPGSV,3,1,9,2,20,46,36,12,18,85,0,14,30,249,38,21,19,175,40*4C
$GPGSV,,2,,25,53,66,43,26,18,289,35,29,82,24,40,31,53,306,36*42
$GPGSV,,3,,32,21,228,41*75
$YXXDR,A,-3.0,D,PTCH,A,3.2,D,ROLL*72
$HCHDG,265.1,0.0,E,0.7,W*57
$WIMWV,154.7,R,4.3,N,A*23
$TIROT,11.7,A*0C
$HCHDG,265.1,0.0,E,0.7,W*57
$WIMWV,154.3,R,4.2,N,A*26
$WIMDA,29.9109,I,1.0129,B,28.7,C,,,,,,,58.5,T,59.2,M,4.1,N,2.1,M*26
$YXXDR,A,-3.0,D,PTCH,A,3.2,D,ROLL*72
$HCHDG,265.1,0.0,E,0.7,W*57
$GPRMC,092758,A,3925.6327,N,00019.8636,W,0.0,249.9,200717,0.7,W,A*16
$WIMWV,154.0,R,4.2,N,A*25
$GPZDA,092758,20,07,2017,00,00*48
$HCHDG,265.2,0.0,E,0.7,W*54
$GPGGA,092758,3925.6327,N,00019.8636,W,1,8,1.0,3.1,M,,,,*37
$WIMWV,155.5,R,4.0,N,A*23
$TIROT,11.7,A*0C
$YXXDR,C,,C,WCHR,C,,C,WCHT,C,,C,HINX,P,1.0126,B,STNP*4F
$YXXDR,A,-2.9,D,PTCH,A,3.1,D,ROLL*79
$HCHDG,265.2,0.0,E,0.7,W*54
$WIMWV,156.1,R,3.9,N,A*2A
$WIMDA,29.9109,I,1.0129,B,28.7,C,,,,,,,61.6,T,62.3,M,3.8,N,2.0,M*29
$HCHDG,265.4,0.0,E,0.7,W*52
$WIMWV,156.7,R,3.8,N,A*2D
$YXXDR,A,-2.8,D,PTCH,A,3.1,D,ROLL*78
$HCHDG,265.7,0.0,E,0.7,W*51
$GPRMC,092800,A,3925.6327,N,00019.8636,W,0.0,249.9,200717,0.7,W,A*14
$WIMWV,156.6,R,3.9,N,A*2D
$GPZDA,092800,20,07,2017,00,00*4A
$TIROT,29.3,A*03
$HCHDG,265.9,0.0,E,0.7,W*5F
$WIMWV,156.5,R,3.9,N,A*2E
$WIMDA,29.9109,I,1.0129,B,28.7,C,,,,,,,61.5,T,62.2,M,3.8,N,2.0,M*2B
$YXXDR,A,-2.8,D,PTCH,A,3.2,D,ROLL*7B
$HCHDG,266.0,0.0,E,0.7,W*55
$WIMWV,156.7,R,3.7,N,A*22
$GPGSV,3,1,9,2,20,46,33,12,18,85,0,14,30,249,35,21,19,175,39*4A
$GPGSV,,2,,25,53,66,43,26,18,289,36,29,82,24,41,31,53,306,37*41
$GPGSV,,3,,32,21,228,37*74
$GPGGA,092801,3925.6327,N,00019.8636,W,1,8,1.0,3.1,M,,,,*34
$HCHDG,266.3,0.0,E,0.7,W*56
$WIMWV,157.5,R,3.8,N,A*2E
$TIROT,23.4,A*0E
$YXXDR,C,,C,WCHR,C,,C,WCHT,C,,C,HINX,P,1.0126,B,STNP*4F
$YXXDR,A,-3.0,D,PTCH,A,3.2,D,ROLL*72
$HCHDG,266.4,0.0,E,0.7,W*51
$GPRMC,092802,A,3925.6327,N,00019.8637,W,0.1,249.3,200717,0.7,W,A*1C
$WIMWV,158.2,R,4.0,N,A*29
$GPZDA,092802,20,07,2017,00,00*48
$WIMDA,29.9109,I,1.0129,B,28.7,C,,,,,,,64.7,T,65.4,M,4.0,N,2.1,M*23
$HCHDG,266.5,0.0,E,0.7,W*50
$WIMWV,159.8,R,4.0,N,A*22
$YXXDR,A,-3.0,D,PTCH,A,3.2,D,ROLL*72
$HCHDG,266.7,0.0,E,0.7,W*52
$WIMWV,157.6,R,4.0,N,A*22
$TIROT,11.7,A*0C
$HCHDG,266.8,0.0,E,0.7,W*5D
$WIMWV,156.5,R,4.0,N,A*20
$WIMDA,29.9109,I,1.0129,B,28.7,C,,,,,,,62.8,T,63.5,M,4.0,N,2.1,M*2D
$YXXDR,A,-3.0,D,PTCH,A,3.2,D,ROLL*72
$HCHDG,266.8,0.0,E,0.7,W*5D
$GPRMC,092804,A,3925.6327,N,00019.8636,W,0.0,248.9,200717,0.7,W,A*11
$WIMWV,155.9,R,4.0,N,A*2F
$GPZDA,092804,20,07,2017,00,00*4E
$GPGGA,092804,3925.6327,N,00019.8636,W,1,8,1.0,3.1,M,,,,*31
$HCHDG,266.8,0.0,E,0.7,W*5D
$WIMWV,154.6,R,4.0,N,A*21
$TIROT,17.5,A*08
$YXXDR,C,,C,WCHR,C,,C,WCHT,C,,C,HINX,P,1.0126,B,STNP*4F
$YXXDR,A,-2.8,D,PTCH,A,3.1,D,ROLL*78
$HCHDG,267.0,0.0,E,0.7,W*54
$WIMWV,153.0,R,3.9,N,A*2E
$WIMDA,29.9109,I,1.0129,B,28.7,C,,,,,,,59.4,T,60.1,M,3.9,N,2.0,M*21
$HCHDG,267.1,0.0,E,0.7,W*55
$WIMWV,153.6,R,3.7,N,A*26
$GPGSV,3,1,9,2,20,46,34,12,18,85,0,14,30,249,35,21,19,175,40*43
$GPGSV,,2,,25,53,66,44,26,18,289,34,29,82,24,42,31,53,306,40*47
$GPGSV,,3,,32,21,228,40*74
$YXXDR,A,-2.8,D,PTCH,A,3.1,D,ROLL*78
$HCHDG,267.1,0.0,E,0.7,W*55
$GPRMC,092806,A,3925.6327,N,00019.8636,W,0.0,248.5,200717,0.7,W,A*1F
$WIMWV,154.5,R,3.7,N,A*22
$GPZDA,092806,20,07,2017,00,00*4C
$TIROT,-11.7,A*21
$HCHDG,267.2,0.0,E,0.7,W*56
$WIMWV,155.5,R,3.6,N,A*22
$WIMDA,29.9109,I,1.0129,B,28.7,C,,,,,,,61.8,T,62.5,M,3.6,N,1.9,M*25
$YXXDR,A,-3.0,D,PTCH,A,3.2,D,ROLL*72
$HCHDG,267.2,0.0,E,0.7,W*56
$WIMWV,154.3,R,3.5,N,A*26
$GPGGA,092807,3925.6327,N,00019.8636,W,1,8,1.0,3.0,M,,,,*33
$HCHDG,267.3,0.0,E,0.7,W*57
$WIMWV,153.5,R,3.5,N,A*27
$TIROT,0.0,A*3B
$YXXDR,C,,C,WCHR,C,,C,WCHT,C,,C,HINX,P,1.0126,B,STNP*4F
$YXXDR,A,-3.0,D,PTCH,A,3.2,D,ROLL*72
$HCHDG,267.3,0.0,E,0.7,W*57
$GPRMC,092808,A,3925.6327,N,00019.8636,W,0.0,248.7,200717,0.7,W,A*13
$WIMWV,153.5,R,3.7,N,A*25
$GPZDA,092808,20,07,2017,00,00*42
$WIMDA,29.9109,I,1.0129,B,28.7,C,,,,,,,60.4,T,61.1,M,3.7,N,1.9,M*2E
$HCHDG,267.2,0.0,E,0.7,W*56
$WIMWV,155.1,R,3.8,N,A*28
$YXXDR,A,-2.9,D,PTCH,A,3.1,D,ROLL*79
$HCHDG,267.2,0.0,E,0.7,W*56
$WIMWV,155.4,R,3.9,N,A*2C
$TIROT,5.8,A*36
$HCHDG,267.3,0.0,E,0.7,W*57
$WIMWV,155.2,R,4.1,N,A*25
$WIMDA,29.9109,I,1.0129,B,28.7,C,,,,,,,60.9,T,61.6,M,4.1,N,2.1,M*2E
$YXXDR,A,-3.0,D,PTCH,A,3.2,D,ROLL*72
$HCHDG,267.2,0.0,E,0.7,W*56
$GPRMC,092810,A,3925.6327,N,00019.8636,W,0.0,249.1,200717,0.7,W,A*1D
$WIMWV,154.0,R,4.1,N,A*26
$GPGSV,3,1,9,2,20,46,32,12,18,85,0,14,30,249,35,21,19,175,39*4B
$GPGSV,,2,,25,53,66,43,26,18,289,34,29,82,24,41,31,53,306,40*43
$GPGSV,,3,,32,21,228,40*74
$GPZDA,092810,20,07,2017,00,00*4B
$GPGGA,092810,3925.6327,N,00019.8636,W,1,8,1.0,3.0,M,,,,*35
$HCHDG,267.0,0.0,E,0.7,W*54
$WIMWV,152.9,R,4.1,N,A*29
$TIROT,-23.4,A*23
$YXXDR,C,,C,WCHR,C,,C,WCHT,C,,C,HINX,P,1.0126,B,STNP*4F
$YXXDR,A,-3.0,D,PTCH,A,3.2,D,ROLL*72
$HCHDG,266.8,0.0,E,0.7,W*5D
$WIMWV,152.5,R,4.1,N,A*25
$WIMDA,29.9080,I,1.0128,B,28.7,C,,,,,,,58.8,T,59.5,M,4.1,N,2.1,M*2D
$HCHDG,266.6,0.0,E,0.7,W*53
$WIMWV,151.9,R,4.1,N,A*2A
$YXXDR,A,-3.0,D,PTCH,A,3.2,D,ROLL*72
$GPRMC,092812,A,3925.6328,N,00019.8635,W,0.1,250.6,200717,0.7,W,A*1D
$HCHDG,266.5,0.0,E,0.7,W*50
$WIMWV,151.5,R,4.1,N,A*26
$TIROT,-17.5,A*25
$GPZDA,092812,20,07,2017,00,00*49
$HCHDG,266.3,0.0,E,0.7,W*56
$WIMWV,151.6,R,4.0,N,A*24
$WIMDA,29.9109,I,1.0129,B,28.6,C,,,,,,,57.6,T,58.3,M,4.1,N,2.1,M*2B
$YXXDR,A,-3.0,D,PTCH,A,3.2,D,ROLL*72
$HCHDG,266.3,0.0,E,0.7,W*56
$WIMWV,151.7,R,4.1,N,A*24
$GPGGA,092813,3925.6328,N,00019.8635,W,1,8,1.0,3.0,M,,,,*3A
$HCHDG,266.1,0.0,E,0.7,W*54
$WIMWV,151.6,R,4.2,N,A*26
$TIROT,-11.7,A*21
$YXXDR,C,,C,WCHR,C,,C,WCHT,C,,C,HINX,P,1.0126,B,STNP*4F
$YXXDR,A,-2.8,D,PTCH,A,3.2,D,ROLL*7B
$GPRMC,092814,A,3925.6328,N,00019.8634,W,0.1,253.3,200717,0.7,W,A*1C
$HCHDG,266.0,0.0,E,0.7,W*55
$WIMWV,151.7,R,4.3,N,A*26
$WIMDA,29.9109,I,1.0129,B,28.7,C,,,,,,,57.6,T,58.3,M,4.4,N,2.3,M*2D
$GPZDA,092814,20,07,2017,00,00*4F
$GPGSV,3,1,9,2,20,46,38,12,18,85,0,14,30,249,38,21,19,175,40*42
$GPGSV,,2,,25,53,66,43,26,18,289,35,29,82,24,42,31,53,306,38*4E
$GPGSV,,3,,32,21,228,37*74
$HCHDG,266.0,0.0,E,0.7,W*55
$WIMWV,150.1,R,4.5,N,A*27
$YXXDR,A,-3.0,D,PTCH,A,3.2,D,ROLL*72
$HCHDG,266.0,0.0,E,0.7,W*55
$WIMWV,147.6,R,4.5,N,A*26
$TIROT,0.0,A*3B
$HCHDG,265.9,0.0,E,0.7,W*5F
$WIMWV,148.2,R,4.5,N,A*2D
$WIMDA,29.9109,I,1.0129,B,28.7,C,,,,,,,53.3,T,54.0,M,4.5,N,2.3,M*22
$YXXDR,A,-3.0,D,PTCH,A,3.2,D,ROLL*72
$GPRMC,092816,A,3925.6328,N,00019.8634,W,0.0,254.0,200717,0.7,W,A*1B
$GPZDA,092816,20,07,2017,00,00*4D
$HCHDG,265.9,0.0,E,0.7,W*5F
$WIMWV,149.2,R,4.6,N,A*2F
$GPGGA,092816,3925.6328,N,00019.8634,W,1,8,1.0,3.0,M,,,,*3E
$HCHDG,265.8,0.0,E,0.7,W*5E
$WIMWV,149.5,R,4.5,N,A*2B
$TIROT,0.0,A*3B
$YXXDR,C,,C,WCHR,C,,C,WCHT,C,,C,HINX,P,1.0126,B,STNP*4F
$YXXDR,A,-2.8,D,PTCH,A,3.1,D,ROLL*78
$HCHDG,265.7,0.0,E,0.7,W*51
$WIMWV,150.4,R,4.4,N,A*23
$WIMDA,29.9109,I,1.0129,B,28.7,C,,,,,,,55.8,T,56.5,M,4.4,N,2.3,M*29
$HCHDG,265.7,0.0,E,0.7,W*51
$WIMWV,151.0,R,4.4,N,A*26
$YXXDR,A,-3.0,D,PTCH,A,2.9,D,ROLL*78
$GPRMC,092818,A,3925.6328,N,00019.8634,W,0.0,254.8,200717,0.7,W,A*1D
$GPZDA,092818,20,07,2017,00,00*43
$HCHDG,265.6,0.0,E,0.7,W*50
$WIMWV,152.9,R,4.5,N,A*2D
$TIROT,-5.8,A*1B
$HCHDG,265.6,0.0,E,0.7,W*50
$WIMWV,156.7,R,4.5,N,A*27
$WIMDA,29.9080,I,1.0128,B,28.7,C,,,,,,,61.6,T,62.3,M,4.5,N,2.3,M*21
$YXXDR,A,-3.0,D,PTCH,A,2.9,D,ROLL*78
$GPGSV,3,1,9,2,20,46,31,12,18,85,0,14,29,249,37,21,20,175,40*46
$GPGSV,,2,,25,53,67,43,26,18,289,37,29,82,25,42,31,54,306,38*4B
$GPGSV,,3,,32,21,228,41*75
$HCHDG,265.6,0.0,E,0.7,W*50
$WIMWV,157.5,R,4.5,N,A*24
$GPGGA,092819,3925.6328,N,00019.8634,W,1,8,1.0,2.9,M,,,,*39
$HCHDG,265.5,0.0,E,0.7,W*53
$TIROT,5.8,A*36
$YXXDR,C,,C,WCHR,C,,C,WCHT,C,,C,HINX,P,1.0125,B,STNP*4C
$WIMWV,157.9,R,4.5,N,A*28
$YXXDR,A,-2.9,D,PTCH,A,3.1,D,ROLL*79
$GPRMC,092820,A,3925.6329,N,00019.8634,W,0.1,255.4,200717,0.7,W,A*1B
$GPZDA,092820,20,07,2017,00,00*48
$HCHDG,265.5,0.0,E,0.7,W*53
$WIMDA,29.9080,I,1.0128,B,28.7,C,,,,,,,63.1,T,63.8,M,4.5,N,2.3,M*2E
$WIMWV,158.1,R,4.5,N,A*2F
$HCHDG,265.4,0.0,E,0.7,W*52
$WIMWV,157.9,R,4.4,N,A*29
$YXXDR,A,-3.0,D,PTCH,A,3.2,D,ROLL*72
$HCHDG,265.4,0.0,E,0.7,W*52
$TIROT,11.7,A*0C
$WIMWV,157.1,R,4.3,N,A*26
$HCHDG,265.5,0.0,E,0.7,W*53
$WIMDA,29.9080,I,1.0128,B,28.7,C,,,,,,,62.3,T,63.0,M,4.1,N,2.1,M*23
$WIMWV,157.6,R,4.1,N,A*23
$YXXDR,A,-2.9,D,PTCH,A,3.1,D,ROLL*79
$GPRMC,092822,A,3925.6329,N,00019.8634,W,0.0,255.2,200717,0.7,W,A*1E
$GPZDA,092822,20,07,2017,00,00*4A
$HCHDG,265.6,0.0,E,0.7,W*50
$WIMWV,158.4,R,4.0,N,A*2F
$GPGGA,092822,3925.6329,N,00019.8634,W,1,8,1.0,2.8,M,,,,*31
$HCHDG,265.6,0.0,E,0.7,W*50
$TIROT,11.7,A*0C
$YXXDR,C,,C,WCHR,C,,C,WCHT,C,,C,HINX,P,1.0125,B,STNP*4C
$WIMWV,160.9,R,4.0,N,A*29
$YXXDR,A,-3.0,D,PTCH,A,3.2,D,ROLL*72
$HCHDG,265.8,0.0,E,0.7,W*5E
$WIMDA,29.9080,I,1.0128,B,28.7,C,,,,,,,66.5,T,67.2,M,4.0,N,2.1,M*26
$WIMWV,161.7,R,4.0,N,A*26
$GPGSV,3,1,9,2,20,46,35,12,18,85,0,14,29,249,36,21,20,175,39*4D
$GPGSV,,2,,25,53,67,43,26,18,289,38,29,82,25,43,31,54,306,38*45
$GPGSV,,3,,32,21,228,39*7A
$HCHDG,266.0,0.0,E,0.7,W*55
$WIMWV,162.5,R,4.0,N,A*27
$YXXDR,A,-2.9,D,PTCH,A,3.1,D,ROLL*79
$GPRMC,092824,A,3925.6328,N,00019.8633,W,0.1,254.7,200717,0.7,W,A*1B
$GPZDA,092824,20,07,2017,00,00*4C
$HCHDG,266.0,0.0,E,0.7,W*55
$TIROT,17.5,A*08
$WIMWV,162.2,R,3.8,N,A*2F
$HCHDG,266.0,0.0,E,0.7,W*55
$WIMDA,29.9080,I,1.0128,B,28.7,C,,,,,,,67.1,T,67.8,M,3.7,N,1.9,M*22
$WIMWV,161.9,R,3.7,N,A*28
$YXXDR,A,-3.0,D,PTCH,A,3.2,D,ROLL*72
$HCHDG,266.1,0.0,E,0.7,W*54
$WIMWV,161.8,R,3.7,N,A*29
$GPGGA,092825,3925.6328,N,00019.8633,W,1,8,1.0,2.7,M,,,,*3F
$HCHDG,266.0,0.0,E,0.7,W*55
$TIROT,11.7,A*0C
$YXXDR,C,,C,WCHR,C,,C,WCHT,C,,C,HINX,P,1.0125,B,STNP*4C
$WIMWV,161.8,R,3.8,N,A*26
$YXXDR,A,-2.9,D,PTCH,A,3.1,D,ROLL*79
$GPRMC,092826,A,3925.6328,N,00019.8632,W,0.1,254.2,200717,0.7,W,A*1D
$GPZDA,092826,20,07,2017,00,00*4E
$HCHDG,266.1,0.0,E,0.7,W*54
$WIMDA,29.9080,I,1.0128,B,28.7,C,,,,,,,66.8,T,67.5,M,3.8,N,2.0,M*22
$WIMWV,160.7,R,3.8,N,A*28
$HCHDG,266.2,0.0,E,0.7,W*57
$WIMWV,158.4,R,3.8,N,A*20
$YXXDR,A,-2.9,D,PTCH,A,3.1,D,ROLL*79
$HCHDG,266.1,0.0,E,0.7,W*54
$TIROT,-5.8,A*1B
$WIMWV,157.3,R,3.7,N,A*27
$HCHDG,266.2,0.0,E,0.7,W*57
$WIMDA,29.9050,I,1.0127,B,28.7,C,,,,,,,61.7,T,62.4,M,3.7,N,1.9,M*29
$WIMWV,155.2,R,3.7,N,A*24
$YXXDR,A,-3.0,D,PTCH,A,3.2,D,ROLL*72
$GPRMC,092828,A,3925.6327,N,00019.8632,W,0.1,253.5,200717,0.7,W,D*19
$GPGSV,3,1,9,2,20,46,34,12,18,85,0,14,29,249,33,21,20,175,37*47
$GPGSV,,2,,25,53,67,44,26,18,289,35,29,82,25,42,31,54,306,38*4E
$GPGSV,,3,,32,21,228,38*7B
$HCHDG,266.4,0.0,E,0.7,W*51
$WIMWV,153.1,R,3.5,N,A*23
$GPZDA,092828,20,07,2017,00,00*40
$GPGGA,092828,3925.6327,N,00019.8632,W,2,6,1.0,2.4,M,,,,*32
$TIROT,11.7,A*0C
$YXXDR,C,,C,WCHR,C,,C,WCHT,C,,C,HINX,P,1.0125,B,STNP*4C
$YXXDR,A,-3.0,D,PTCH,A,3.2,D,ROLL*72
$HCHDG,266.4,0.0,E,0.7,W*51
$WIMWV,148.1,R,3.4,N,A*28
$WIMDA,29.9050,I,1.0127,B,28.7,C,,,,,,,52.1,T,52.8,M,3.3,N,1.7,M*2A
$HCHDG,266.5,0.0,E,0.7,W*50
$WIMWV,143.0,R,2.9,N,A*2E
$YXXDR,A,-2.9,D,PTCH,A,3.1,D,ROLL*79
$HCHDG,266.6,0.0,E,0.7,W*53
$GPRMC,092830,A,3925.6326,N,00019.8631,W,0.0,253.2,200717,0.7,W,D*14
$WIMWV,139.8,R,2.7,N,A*25
$TIROT,0.0,A*3B
$HCHDG,266.6,0.0,E,0.7,W*53
$GPZDA,092830,20,07,2017,00,00*49
$WIMWV,139.9,R,2.7,N,A*24
$WIMDA,29.9050,I,1.0127,B,28.7,C,,,,,,,45.7,T,46.4,M,2.7,N,1.4,M*25
$YXXDR,A,-2.9,D,PTCH,A,3.1,D,ROLL*79
$HCHDG,266.6,0.0,E,0.7,W*53
$WIMWV,139.7,R,2.6,N,A*2B
$HCHDG,266.7,0.0,E,0.7,W*52
$WIMWV,136.9,R,2.6,N,A*2A
$GPGGA,092831,3925.6326,N,00019.8630,W,2,8,1.0,2.2,M,,,,*31
$TIROT,0.0,A*3B
$YXXDR,C,,C,WCHR,C,,C,WCHT,C,,C,HINX,P,1.0124,B,STNP*4D
$YXXDR,A,-2.9,D,PTCH,A,3.1,D,ROLL*79
$HCHDG,266.7,0.0,E,0.7,W*52
$GPRMC,092832,A,3925.6325,N,00019.8630,W,0.0,253.1,200717,0.7,W,D*17
$WIMWV,136.9,R,2.5,N,A*29
$WIMDA,29.9050,I,1.0127,B,28.8,C,,,,,,,41.9,T,42.6,M,2.6,N,1.3,M*20
$GPZDA,092832,20,07,2017,00,00*4B
$HCHDG,266.6,0.0,E,0.7,W*53
$WIMWV,136.1,R,2.5,N,A*21
$GPGSV,3,1,9,2,20,46,38,12,18,85,0,14,29,249,33,21,20,175,38*44
$GPGSV,,2,,25,53,67,43,26,18,289,36,29,82,25,41,31,54,306,40*46
$GPGSV,,3,,32,21,228,38*7B
$YXXDR,A,-2.9,D,PTCH,A,3.1,D,ROLL*79
$HCHDG,266.6,0.0,E,0.7,W*53
$WIMWV,136.7,R,2.5,N,A*27
$TIROT,0.0,A*3B
$HCHDG,266.5,0.0,E,0.7,W*50
$WIMWV,135.7,R,2.5,N,A*24
$WIMDA,29.9050,I,1.0127,B,28.8,C,,,,,,,42.1,T,42.8,M,2.5,N,1.3,M*26
$YXXDR,A,-3.0,D,PTCH,A,3.2,D,ROLL*72
$HCHDG,266.5,0.0,E,0.7,W*50
$GPRMC,092834,A,3925.6325,N,00019.8629,W,0.1,254.5,200717,0.7,W,D*1B
$WIMWV,135.5,R,2.5,N,A*26
$GPZDA,092834,20,07,2017,00,00*4D
$HCHDG,266.5,0.0,E,0.7,W*50
$GPGGA,092834,3925.6325,N,00019.8629,W,2,8,1.0,2.0,M,,,,*3D
$WIMWV,137.8,R,2.4,N,A*28
$TIROT,5.8,A*36
$YXXDR,C,,C,WCHR,C,,C,WCHT,C,,C,HINX,P,1.0125,B,STNP*4C
$YXXDR,A,-3.0,D,PTCH,A,3.2,D,ROLL*72
$HCHDG,266.4,0.0,E,0.7,W*51
$WIMWV,139.8,R,2.4,N,A*26
$WIMDA,29.9050,I,1.0127,B,28.8,C,,,,,,,46.3,T,47.0,M,2.4,N,1.2,M*2D
$HCHDG,266.3,0.0,E,0.7,W*56
$WIMWV,139.7,R,2.4,N,A*29
$YXXDR,A,-3.0,D,PTCH,A,3.2,D,ROLL*72
$HCHDG,266.1,0.0,E,0.7,W*54
$GPRMC,092836,A,3925.6324,N,00019.8627,W,0.1,256.2,200717,0.7,W,D*13
$WIMWV,139.0,R,2.4,N,A*2E
$GPZDA,092836,20,07,2017,00,00*4F
$TIROT,0.0,A*3B
$HCHDG,266.1,0.0,E,0.7,W*54
$WIMWV,136.4,R,2.3,N,A*22
$WIMDA,29.9050,I,1.0127,B,28.8,C,,,,,,,41.7,T,42.4,M,2.3,N,1.2,M*28
$YXXDR,A,-3.0,D,PTCH,A,3.2,D,ROLL*72
$HCHDG,266.0,0.0,E,0.7,W*55
$WIMWV,138.1,R,2.2,N,A*28
$GPGSV,3,1,9,2,20,46,38,12,18,85,0,14,29,249,36,21,20,175,36*4F
$GPGSV,,2,,25,53,67,44,26,18,289,37,29,82,25,42,31,54,306,40*43
$GPGSV,,3,,32,21,228,35*76
$GPGGA,092837,3925.6323,N,00019.8626,W,2,8,1.0,1.8,M,,,,*3C
$HCHDG,266.0,0.0,E,0.7,W*55
$WIMWV,139.8,R,2.3,N,A*21
$TIROT,0.0,A*3B
$YXXDR,C,,C,WCHR,C,,C,WCHT,C,,C,HINX,P,1.0125,B,STNP*4C
$YXXDR,A,-3.0,D,PTCH,A,3.2,D,ROLL*72
$HCHDG,265.9,0.0,E,0.7,W*5F
$GPRMC,092838,A,3925.6322,N,00019.8625,W,0.1,257.5,200717,0.7,W,D*1F
$WIMWV,138.2,R,2.3,N,A*2A
$GPZDA,092838,20,07,2017,00,00*41
$WIMDA,29.9050,I,1.0127,B,28.8,C,,,,,,,44.6,T,45.3,M,2.3,N,1.2,M*2C
$HCHDG,265.9,0.0,E,0.7,W*5F
$WIMWV,141.4,R,2.5,N,A*24
$YXXDR,A,-3.0,D,PTCH,A,3.2,D,ROLL*72
$HCHDG,265.8,0.0,E,0.7,W*5E
$WIMWV,142.7,R,2.6,N,A*27
$TIROT,-11.7,A*21
$HCHDG,265.8,0.0,E,0.7,W*5E
$WIMWV,146.9,R,3.1,N,A*2B
$WIMDA,29.9050,I,1.0127,B,28.8,C,,,,,,,54.3,T,55.0,M,3.3,N,1.7,M*2E
$YXXDR,A,-3.0,D,PTCH,A,3.2,D,ROLL*72
$HCHDG,265.8,0.0,E,0.7,W*5E
$GPRMC,092840,A,3925.6320,N,00019.8625,W,0.1,257.1,200717,0.7,W,D*16
$WIMWV,149.4,R,3.4,N,A*2C
$GPZDA,092840,20,07,2017,00,00*4E
$GPGGA,092840,3925.6320,N,00019.8625,W,2,8,1.0,1.7,M,,,,*33
$HCHDG,265.8,0.0,E,0.7,W*5E
$WIMWV,151.3,R,3.5,N,A*23
$TIROT,11.7,A*0C
$YXXDR,C,,C,WCHR,C,,C,WCHT,C,,C,HINX,P,1.0125,B,STNP*4C
$YXXDR,A,-3.0,D,PTCH,A,3.2,D,ROLL*72
$HCHDG,265.9,0.0,E,0.7,W*5F
$WIMWV,152.5,R,3.6,N,A*25
$WIMDA,29.9050,I,1.0127,B,28.8,C,,,,,,,58.2,T,58.9,M,3.6,N,1.9,M*2C
$HCHDG,265.9,0.0,E,0.7,W*5F
$WIMWV,152.4,R,3.6,N,A*24
$GPGSV,3,1,9,2,20,46,37,12,18,85,0,14,29,249,36,21,20,175,39*4F
$GPGSV,,2,,25,53,67,44,26,18,289,38,29,81,25,41,31,54,306,37*4C
$GPGSV,,3,,32,20,228,37*75
$YXXDR,A,-3.0,D,PTCH,A,2.9,D,ROLL*78
$HCHDG,265.9,0.0,E,0.7,W*5F
$GPRMC,092842,A,3925.6318,N,00019.8624,W,0.1,255.8,200717,0.7,W,D*15
$WIMWV,151.1,R,3.6,N,A*22
$GPZDA,092842,20,07,2017,00,00*4C
$TIROT,17.5,A*08
$HCHDG,266.0,0.0,E,0.7,W*55
$WIMWV,150.0,R,3.5,N,A*21
$WIMDA,29.9021,I,1.0126,B,28.8,C,,,,,,,55.5,T,56.2,M,3.5,N,1.8,M*26
$YXXDR,A,-2.9,D,PTCH,A,3.1,D,ROLL*79
$HCHDG,266.0,0.0,E,0.7,W*55
$WIMWV,149.3,R,3.4,N,A*2B
$GPGGA,092843,3925.6317,N,00019.8624,W,2,8,1.0,1.6,M,,,,*34
$HCHDG,266.1,0.0,E,0.7,W*54
$WIMWV,148.5,R,3.3,N,A*2B
$TIROT,11.7,A*0C
$YXXDR,C,,C,WCHR,C,,C,WCHT,C,,C,HINX,P,1.0126,B,STNP*4F
$YXXDR,A,-2.9,D,PTCH,A,3.1,D,ROLL*79
$HCHDG,266.2,0.0,E,0.7,W*57
$GPRMC,092844,A,3925.6317,N,00019.8623,W,0.0,256.1,200717,0.7,W,D*10
$WIMWV,147.3,R,3.2,N,A*23
$GPZDA,092844,20,07,2017,00,00*4A
$WIMDA,29.9050,I,1.0127,B,28.8,C,,,,,,,51.7,T,52.4,M,3.1,N,1.6,M*2F
$HCHDG,266.1,0.0,E,0.7,W*54
$WIMWV,144.3,R,2.9,N,A*2A
$YXXDR,A,-2.9,D,PTCH,A,3.1,D,ROLL*79
$HCHDG,266.1,0.0,E,0.7,W*54
$WIMWV,139.2,R,2.5,N,A*2D
$TIROT,11.7,A*0C
$HCHDG,266.2,0.0,E,0.7,W*57
$WIMWV,134.9,R,2.4,N,A*2A
$WIMDA,29.9050,I,1.0127,B,28.8,C,,,,,,,39.3,T,40.0,M,2.4,N,1.2,M*22
$YXXDR,A,-3.0,D,PTCH,A,3.2,D,ROLL*72
$HCHDG,266.3,0.0,E,0.7,W*56
$GPRMC,092846,A,3925.6316,N,00019.8622,W,0.0,256.5,200717,0.7,W,D*16
$WIMWV,132.8,R,2.4,N,A*2D
$GPGSV,3,1,9,2,20,46,34,12,18,85,0,14,29,249,36,21,20,175,38*4D
$GPGSV,,2,,25,53,67,44,26,18,289,39,29,81,25,41,31,54,306,36*4C
$GPGSV,,3,,32,20,228,33*71
$GPZDA,092846,20,07,2017,00,00*48
$GPGGA,092846,3925.6316,N,00019.8622,W,2,8,1.0,1.5,M,,,,*35
$HCHDG,266.3,0.0,E,0.7,W*56
$WIMWV,132.6,R,2.3,N,A*24
$TIROT,17.5,A*08
$YXXDR,C,,C,WCHR,C,,C,WCHT,C,,C,HINX,P,1.0126,B,STNP*4F
$YXXDR,A,-3.0,D,PTCH,A,3.2,D,ROLL*72
$HCHDG,266.3,0.0,E,0.7,W*56
$WIMWV,135.5,R,2.1,N,A*22
$WIMDA,29.9050,I,1.0127,B,28.8,C,,,,,,,41.4,T,42.1,M,2.1,N,1.1,M*2F
$HCHDG,266.5,0.0,E,0.7,W*50
$WIMWV,135.6,R,2.1,N,A*21
$YXXDR,A,-3.0,D,PTCH,A,3.2,D,ROLL*72
$GPRMC,092848,A,3925.6315,N,00019.8621,W,0.0,256.5,200717,0.7,W,D*18
$HCHDG,266.4,0.0,E,0.7,W*51
$WIMWV,135.7,R,2.1,N,A*20
$TIROT,23.4,A*0E
$GPZDA,092848,20,07,2017,00,00*46
$HCHDG,266.5,0.0,E,0.7,W*50
$WIMWV,137.0,R,2.1,N,A*25
$WIMDA,29.9050,I,1.0127,B,28.8,C,,,,,,,44.8,T,45.5,M,2.1,N,1.1,M*25
$YXXDR,A,-2.9,D,PTCH,A,3.1,D,ROLL*79
$HCHDG,266.5,0.0,E,0.7,W*50
$WIMWV,138.7,R,2.1,N,A*2D
$GPGGA,092849,3925.6315,N,00019.8620,W,2,8,1.0,1.4,M,,,,*3A
$HCHDG,266.5,0.0,E,0.7,W*50
$WIMWV,143.5,R,2.4,N,A*26
$TIROT,11.7,A*0C
$YXXDR,C,,C,WCHR,C,,C,WCHT,C,,C,HINX,P,1.0126,B,STNP*4F
$YXXDR,A,-3.0,D,PTCH,A,3.2,D,ROLL*72
$GPRMC,092850,A,3925.6315,N,00019.8620,W,0.0,256.3,200717,0.7,W,D*16
$HCHDG,266.4,0.0,E,0.7,W*51
$WIMWV,145.9,R,2.6,N,A*2E
$WIMDA,29.9050,I,1.0127,B,28.8,C,,,,,,,51.5,T,52.2,M,2.6,N,1.3,M*28
$GPZDA,092850,20,07,2017,00,00*4F
$GPGSV,3,1,9,2,20,46,33,12,18,85,0,14,29,249,37,21,20,175,38*4B
$GPGSV,,2,,25,53,67,43,26,18,289,37,29,81,25,41,31,54,306,36*45
$GPGSV,,3,,32,20,228,35*77
$HCHDG,266.4,0.0,E,0.7,W*51
$WIMWV,148.7,R,2.8,N,A*23
$YXXDR,A,-3.0,D,PTCH,A,3.2,D,ROLL*72
$HCHDG,266.4,0.0,E,0.7,W*51
$WIMWV,149.7,R,3.0,N,A*2B
$TIROT,0.0,A*3B
$HCHDG,266.5,0.0,E,0.7,W*50
$WIMWV,152.4,R,3.2,N,A*20
$WIMDA,29.9050,I,1.0127,B,28.8,C,,,,,,,58.7,T,59.4,M,3.2,N,1.6,M*2E
$YXXDR,A,-3.0,D,PTCH,A,3.2,D,ROLL*72
$GPRMC,092852,A,3925.6314,N,00019.8620,W,0.1,256.4,200717,0.7,W,D*13
$GPZDA,092852,20,07,2017,00,00*4D
$HCHDG,266.5,0.0,E,0.7,W*50
$WIMWV,153.6,R,3.3,N,A*22
$GPGGA,092852,3925.6314,N,00019.8620,W,2,8,1.0,1.3,M,,,,*36
$HCHDG,266.5,0.0,E,0.7,W*50
$WIMWV,151.3,R,3.6,N,A*20
$TIROT,5.8,A*36
$YXXDR,C,,C,WCHR,C,,C,WCHT,C,,C,HINX,P,1.0126,B,STNP*4F
$YXXDR,A,-3.0,D,PTCH,A,3.2,D,ROLL*72
$HCHDG,266.5,0.0,E,0.7,W*50
$WIMWV,152.7,R,3.7,N,A*26
$WIMDA,29.9050,I,1.0127,B,28.8,C,,,,,,,58.4,T,59.1,M,3.7,N,1.9,M*22
$HCHDG,266.5,0.0,E,0.7,W*50
$WIMWV,151.8,R,3.9,N,A*24
$YXXDR,A,-2.9,D,PTCH,A,3.1,D,ROLL*79
$GPRMC,092854,A,3925.6314,N,00019.8620,W,0.0,256.5,200717,0.7,W,D*15
$GPZDA,092854,20,07,2017,00,00*4B
$HCHDG,266.5,0.0,E,0.7,W*50
$WIMWV,151.5,R,4.0,N,A*27
$TIROT,-5.8,A*1B
$HCHDG,266.4,0.0,E,0.7,W*51
$WIMWV,148.9,R,4.1,N,A*22
$WIMDA,29.9050,I,1.0127,B,28.8,C,,,,,,,54.5,T,55.2,M,4.1,N,2.1,M*2A
$YXXDR,A,-3.0,D,PTCH,A,3.2,D,ROLL*72
$GPGSV,3,1,9,2,20,46,34,12,18,85,0,14,29,249,36,21,20,175,37*42
$GPGSV,,2,,25,53,67,42,26,18,289,39,29,81,25,41,31,54,306,37*4B
$GPGSV,,3,,32,20,228,35*77
$HCHDG,266.4,0.0,E,0.7,W*51
$WIMWV,146.3,R,4.3,N,A*24
$GPGGA,092855,3925.6314,N,00019.8619,W,2,8,1.0,1.3,M,,,,*3B
$HCHDG,266.4,0.0,E,0.7,W*51
$TIROT,0.0,A*3B
$YXXDR,C,,C,WCHR,C,,C,WCHT,C,,C,HINX,P,1.0126,B,STNP*4F
$WIMWV,145.9,R,4.3,N,A*2D
$YXXDR,A,-3.0,D,PTCH,A,3.2,D,ROLL*72
$GPRMC,092856,A,3925.6314,N,00019.8619,W,0.0,256.6,200717,0.7,W,D*1E
$GPZDA,092856,20,07,2017,00,00*49
$HCHDG,266.4,0.0,E,0.7,W*51
$WIMDA,29.9050,I,1.0127,B,28.8,C,,,,,,,52.5,T,53.2,M,4.5,N,2.3,M*2C
$WIMWV,147.0,R,4.5,N,A*20
$HCHDG,266.3,0.0,E,0.7,W*56
$WIMWV,149.8,R,4.7,N,A*24
$YXXDR,A,-2.9,D,PTCH,A,3.1,D,ROLL*79
$HCHDG,266.3,0.0,E,0.7,W*56
$TIROT,-5.8,A*1B
$WIMWV,151.0,R,4.7,N,A*25
$HCHDG,266.3,0.0,E,0.7,W*56
$WIMDA,29.9050,I,1.0127,B,28.8,C,,,,,,,57.8,T,58.5,M,4.7,N,2.4,M*2D
$WIMWV,152.9,R,4.7,N,A*2F
$YXXDR,A,-2.9,D,PTCH,A,3.1,D,ROLL*79
$GPRMC,092858,A,3925.6313,N,00019.8619,W,0.0,256.8,200717,0.7,W,D*19
$GPZDA,092858,20,07,2017,00,00*47
$HCHDG,266.4,0.0,E,0.7,W*51
$WIMWV,156.7,R,4.8,N,A*2A
$GPGGA,092858,3925.6313,N,00019.8619,W,2,8,1.0,1.3,M,,,,*31
$HCHDG,266.3,0.0,E,0.7,W*56
$TIROT,5.8,A*36
$YXXDR,C,,C,WCHR,C,,C,WCHT,C,,C,HINX,P,1.0125,B,STNP*4C
$WIMWV,160.5,R,4.8,N,A*2D
$YXXDR,A,-2.9,D,PTCH,A,3.1,D,ROLL*79
$HCHDG,266.2,0.0,E,0.7,W*57
$WIMDA,29.9021,I,1.0126,B,28.8,C,,,,,,,68.2,T,68.9,M,4.8,N,2.5,M*2D
$WIMWV,162.8,R,4.8,N,A*22
$GPGSV,3,1,9,2,20,46,36,12,18,85,0,14,29,249,37,21,20,175,37*41
$GPGSV,,2,,25,53,67,43,26,18,289,39,29,81,25,40,31,54,306,37*4B
$GPGSV,,3,,32,20,228,32*70
$HCHDG,266.2,0.0,E,0.7,W*57
$WIMWV,164.7,R,4.9,N,A*2A
$YXXDR,A,-3.0,D,PTCH,A,3.2,D,ROLL*72
$GPRMC,092900,A,3925.6313,N,00019.8619,W,0.0,257.2,200717,0.7,W,D*1E
$GPZDA,092900,20,07,2017,00,00*4B
$HCHDG,266.1,0.0,E,0.7,W*54
$TIROT,0.0,A*3B
$WIMWV,165.1,R,4.9,N,A*2D
$HCHDG,266.1,0.0,E,0.7,W*54
$WIMDA,29.9021,I,1.0126,B,28.8,C,,,,,,,72.0,T,72.7,M,5.0,N,2.6,M*2B
$WIMWV,166.6,R,5.0,N,A*21
$YXXDR,A,-3.0,D,PTCH,A,3.2,D,ROLL*72
$HCHDG,266.1,0.0,E,0.7,W*54
$WIMWV,167.4,R,5.0,N,A*22
$GPGGA,092901,3925.6313,N,00019.8619,W,2,8,1.0,1.4,M,,,,*3B
$HCHDG,266.1,0.0,E,0.7,W*54
$TIROT,0.0,A*3B
$YXXDR,C,,C,WCHR,C,,C,WCHT,C,,C,HINX,P,1.0126,B,STNP*4F
$WIMWV,168.0,R,5.0,N,A*29
$YXXDR,A,-2.9,D,PTCH,A,3.1,D,ROLL*79
$GPRMC,092902,A,3925.6313,N,00019.8619,W,0.0,257.5,200717,0.7,W,D*1B
$GPZDA,092902,20,07,2017,00,00*49
$HCHDG,266.1,0.0,E,0.7,W*54
$WIMDA,29.9021,I,1.0126,B,28.7,C,,,,,,,73.6,T,74.3,M,4.9,N,2.5,M*2A
$WIMWV,168.2,R,4.9,N,A*23
$HCHDG,266.0,0.0,E,0.7,W*55
$WIMWV,169.8,R,5.0,N,A*20
$YXXDR,A,-3.0,D,PTCH,A,3.2,D,ROLL*72
$HCHDG,266.0,0.0,E,0.7,W*55
$TIROT,-5.8,A*1B
$WIMWV,168.6,R,4.9,N,A*27
$HCHDG,266.0,0.0,E,0.7,W*55
$WIMDA,29.9021,I,1.0126,B,28.7,C,,,,,,,73.0,T,73.7,M,4.9,N,2.5,M*2F
$WIMWV,167.8,R,4.9,N,A*26
$YXXDR,A,-3.0,D,PTCH,A,3.2,D,ROLL*72
$GPRMC,092904,A,3925.6313,N,00019.8619,W,0.0,257.2,200717,0.7,W,D*1A
$GPGSV,3,1,9,2,20,46,37,12,18,85,0,14,29,249,38,21,20,175,37*4F
$GPGSV,,2,,25,53,67,44,26,18,289,38,29,81,25,41,31,54,306,38*43
$GPGSV,,3,,32,20,228,35*77
$HCHDG,265.9,0.0,E,0.7,W*5F
$WIMWV,166.3,R,4.8,N,A*2D
$GPZDA,092904,20,07,2017,00,00*4F
$GPGGA,092904,3925.6313,N,00019.8619,W,2,8,1.0,1.5,M,,,,*3F
$TIROT,0.0,A*3B
$YXXDR,C,,C,WCHR,C,,C,WCHT,C,,C,HINX,P,1.0126,B,STNP*4F
$YXXDR,A,-3.0,D,PTCH,A,3.2,D,ROLL*72
$HCHDG,265.9,0.0,E,0.7,W*5F
$WIMWV,164.2,R,4.6,N,A*20
$WIMDA,29.9050,I,1.0127,B,28.7,C,,,,,,,68.0,T,68.7,M,4.5,N,2.3,M*22
$HCHDG,265.8,0.0,E,0.7,W*5E
$WIMWV,161.8,R,4.3,N,A*2A
$YXXDR,A,-3.0,D,PTCH,A,3.2,D,ROLL*72
$HCHDG,265.9,0.0,E,0.7,W*5F
$GPRMC,092906,A,3925.6312,N,00019.8619,W,0.0,257.0,200717,0.7,W,D*1B
$WIMWV,160.3,R,4.0,N,A*23
$TIROT,-5.8,A*1B
$HCHDG,265.8,0.0,E,0.7,W*5E
$GPZDA,092906,20,07,2017,00,00*4D
$WIMWV,158.9,R,3.9,N,A*2C
$WIMDA,29.9021,I,1.0126,B,28.7,C,,,,,,,62.1,T,62.8,M,3.7,N,1.9,M*27
$YXXDR,A,-3.0,D,PTCH,A,3.2,D,ROLL*72
$HCHDG,265.9,0.0,E,0.7,W*5F
$WIMWV,154.8,R,3.7,N,A*2F
$HCHDG,265.8,0.0,E,0.7,W*5E
$WIMWV,151.2,R,3.4,N,A*23
$GPGGA,092907,3925.6312,N,00019.8619,W,2,8,1.0,1.6,M,,,,*3E
$TIROT,11.7,A*0C
$YXXDR,C,,C,WCHR,C,,C,WCHT,C,,C,HINX,P,1.0126,B,STNP*4F
$YXXDR,A,-3.0,D,PTCH,A,3.2,D,ROLL*72
$HCHDG,265.8,0.0,E,0.7,W*5E
$GPRMC,092908,A,3925.6312,N,00019.8619,W,0.0,256.9,200717,0.7,W,D*1D
$WIMWV,150.3,R,3.3,N,A*24
$WIMDA,29.9021,I,1.0126,B,28.7,C,,,,,,,54.9,T,55.6,M,3.3,N,1.7,M*2A
$GPZDA,092908,20,07,2017,00,00*43
$HCHDG,265.9,0.0,E,0.7,W*5F
$WIMWV,149.7,R,3.2,N,A*29
$GPGSV,3,1,9,2,20,46,35,12,18,85,0,14,29,249,39,21,20,175,36*4D
$GPGSV,,2,,25,53,67,44,26,18,289,37,29,81,25,41,31,54,306,36*42
$GPGSV,,3,,32,20,228,35*77
$YXXDR,A,-2.9,D,PTCH,A,3.1,D,ROLL*79
$HCHDG,266.0,0.0,E,0.7,W*55
$WIMWV,149.3,R,3.3,N,A*2C
$TIROT,11.7,A*0C
$HCHDG,266.1,0.0,E,0.7,W*54
$WIMWV,148.8,R,3.4,N,A*21
$WIMDA,29.9050,I,1.0127,B,28.8,C,,,,,,,55.0,T,55.7,M,3.4,N,1.7,M*2C
$YXXDR,A,-2.8,D,PTCH,A,3.2,D,ROLL*7B
$HCHDG,266.2,0.0,E,0.7,W*57
$GPRMC,092910,A,3925.6312,N,00019.8619,W,0.0,256.3,200717,0.7,W,D*1E
$WIMWV,149.7,R,3.6,N,A*2D
$GPZDA,092910,20,07,2017,00,00*4A
$HCHDG,266.2,0.0,E,0.7,W*57
$GPGGA,092910,3925.6312,N,00019.8619,W,2,8,1.0,1.7,M,,,,*39
$WIMWV,149.8,R,3.8,N,A*2C
$TIROT,11.7,A*0C
$YXXDR,C,,C,WCHR,C,,C,WCHT,C,,C,HINX,P,1.0125,B,STNP*4C
$YXXDR,A,-3.0,D,PTCH,A,3.2,D,ROLL*72
$HCHDG,266.3,0.0,E,0.7,W*56
$WIMWV,150.9,R,4.0,N,A*2A
$WIMDA,29.9050,I,1.0127,B,28.8,C,,,,,,,56.8,T,57.5,M,4.0,N,2.1,M*21
$HCHDG,266.5,0.0,E,0.7,W*50
$WIMWV,152.5,R,4.1,N,A*25
$YXXDR,A,-3.0,D,PTCH,A,3.2,D,ROLL*72
$HCHDG,266.4,0.0,E,0.7,W*51
$GPRMC,092912,A,3925.6314,N,00019.8620,W,0.0,256.3,200717,0.7,W,D*10
$WIMWV,153.4,R,4.2,N,A*26
$GPZDA,092912,20,07,2017,00,00*48
$TIROT,0.0,A*3B
$HCHDG,266.4,0.0,E,0.7,W*51
$WIMWV,153.6,R,4.4,N,A*22
$WIMDA,29.9050,I,1.0127,B,28.8,C,,,,,,,60.0,T,60.7,M,4.4,N,2.3,M*2C
$YXXDR,A,-3.0,D,PTCH,A,3.2,D,ROLL*72
$HCHDG,266.5,0.0,E,0.7,W*50
$WIMWV,153.7,R,4.4,N,A*23
$GPGSV,3,1,9,2,20,46,37,12,18,85,0,14,29,249,37,21,20,175,36*41
$GPGSV,,2,,25,53,67,44,26,18,289,36,29,81,25,42,31,54,306,40*41
$GPGSV,,3,,32,20,228,40*75
$GPGGA,092913,3925.6314,N,00019.8621,W,2,8,1.0,1.8,M,,,,*38
$HCHDG,266.5,0.0,E,0.7,W*50
$WIMWV,153.7,R,4.4,N,A*23
$TIROT,17.5,A*08
$YXXDR,C,,C,WCHR,C,,C,WCHT,C,,C,HINX,P,1.0126,B,STNP*4F
$YXXDR,A,-3.0,D,PTCH,A,3.2,D,ROLL*72
$HCHDG,266.6,0.0,E,0.7,W*53
$GPRMC,092914,A,3925.6315,N,00019.8621,W,0.0,255.6,200717,0.7,W,D*10
$WIMWV,152.8,R,4.4,N,A*2D
$GPZDA,092914,20,07,2017,00,00*4E
$WIMDA,29.9080,I,1.0128,B,28.8,C,,,,,,,58.2,T,58.9,M,4.3,N,2.2,M*24
$HCHDG,266.6,0.0,E,0.7,W*53
$WIMWV,151.1,R,4.3,N,A*20
$YXXDR,A,-3.0,D,PTCH,A,3.2,D,ROLL*72
$HCHDG,266.7,0.0,E,0.7,W*52
$WIMWV,150.9,R,4.2,N,A*28
$TIROT,0.0,A*3B
$HCHDG,266.7,0.0,E,0.7,W*52
$WIMWV,151.0,R,4.2,N,A*20
$WIMDA,29.9050,I,1.0127,B,28.8,C,,,,,,,57.2,T,57.9,M,4.2,N,2.2,M*27
$YXXDR,A,-3.0,D,PTCH,A,3.2,D,ROLL*72
$HCHDG,266.8,0.0,E,0.7,W*5D
$GPRMC,092916,A,3925.6316,N,00019.8622,W,0.0,255.3,200717,0.7,W,D*17
$WIMWV,152.2,R,4.2,N,A*21
$GPZDA,092916,20,07,2017,00,00*4C
$GPGGA,092916,3925.6316,N,00019.8622,W,2,8,1.0,1.8,M,,,,*3C
$HCHDG,266.8,0.0,E,0.7,W*5D
$WIMWV,153.5,R,4.3,N,A*26
$TIROT,-5.8,A*1B
$YXXDR,C,,C,WCHR,C,,C,WCHT,C,,C,HINX,P,1.0125,B,STNP*4C
$YXXDR,A,-2.9,D,PTCH,A,3.1,D,ROLL*79
$HCHDG,266.8,0.0,E,0.7,W*5D
$WIMWV,153.9,R,4.3,N,A*2A
$WIMDA,29.9050,I,1.0127,B,28.8,C,,,,,,,60.0,T,60.7,M,4.3,N,2.2,M*2A
$HCHDG,266.8,0.0,E,0.7,W*5D
$WIMWV,153.4,R,4.3,N,A*27
$GPGSV,3,1,9,2,20,46,35,12,18,86,0,14,29,248,35,21,20,175,36*43
$GPGSV,,2,,25,52,67,43,26,18,289,37,29,81,25,41,31,54,306,40*45
$GPGSV,,3,,32,20,228,41*74
$YXXDR,A,-3.0,D,PTCH,A,2.9,D,ROLL*78
$HCHDG,266.7,0.0,E,0.7,W*52
$GPRMC,092918,A,3925.6317,N,00019.8624,W,0.0,255.3,200717,0.7,W,D*1E
$WIMWV,152.8,R,4.2,N,A*2B
$GPZDA,092918,20,07,2017,00,00*42
$TIROT,0.0,A*3B
$HCHDG,266.7,0.0,E,0.7,W*52
$WIMWV,151.8,R,4.2,N,A*28
$WIMDA,29.9050,I,1.0127,B,28.7,C,,,,,,,57.7,T,58.4,M,4.1,N,2.1,M*2F
$YXXDR,A,-3.0,D,PTCH,A,3.2,D,ROLL*72
$HCHDG,266.7,0.0,E,0.7,W*52
$WIMWV,151.3,R,4.1,N,A*20
$GPGGA,092919,3925.6318,N,00019.8624,W,2,8,1.0,1.8,M,,,,*3B
$HCHDG,266.6,0.0,E,0.7,W*53
$WIMWV,151.7,R,4.0,N,A*25
$TIROT,-17.5,A*25
$YXXDR,C,,C,WCHR,C,,C,WCHT,C,,C,HINX,P,1.0125,B,STNP*4C
$YXXDR,A,-3.0,D,PTCH,A,3.2,D,ROLL*72
$HCHDG,266.4,0.0,E,0.7,W*51
$GPRMC,092920,A,3925.6318,N,00019.8624,W,0.0,256.0,200717,0.7,W,D*1A
$WIMWV,152.4,R,3.9,N,A*2B
$GPZDA,092920,20,07,2017,00,00*49
$WIMDA,29.9080,I,1.0128,B,28.8,C,,,,,,,58.2,T,58.9,M,3.9,N,2.0,M*2B
$HCHDG,266.5,0.0,E,0.7,W*50
$WIMWV,152.5,R,3.9,N,A*2A
$YXXDR,A,-3.0,D,PTCH,A,3.2,D,ROLL*72
$HCHDG,266.3,0.0,E,0.7,W*56
$WIMWV,151.7,R,3.7,N,A*25
$TIROT,-5.8,A*1B
$HCHDG,266.3,0.0,E,0.7,W*56
$WIMWV,150.3,R,3.6,N,A*21
$WIMDA,29.9050,I,1.0127,B,28.8,C,,,,,,,56.1,T,56.8,M,3.6,N,1.9,M*2E
$YXXDR,A,-3.0,D,PTCH,A,3.2,D,ROLL*72
$HCHDG,266.3,0.0,E,0.7,W*56
$GPRMC,092922,A,3925.6319,N,00019.8625,W,0.1,257.0,200717,0.7,W,D*18
$WIMWV,150.5,R,3.6,N,A*27
$GPZDA,092922,20,07,2017,00,00*4B
$GPGSV,3,1,9,2,20,46,37,12,18,86,0,14,29,248,37,21,20,175,35*40
$GPGSV,,2,,25,52,67,43,26,18,289,34,29,81,25,42,31,54,306,40*45
$GPGSV,,3,,32,20,228,40*75
$GPGGA,092922,3925.6319,N,00019.8625,W,2,8,1.0,1.8,M,,,,*33
$HCHDG,266.2,0.0,E,0.7,W*57
$WIMWV,150.6,R,3.6,N,A*24
$TIROT,-5.8,A*1B
$YXXDR,C,,C,WCHR,C,,C,WCHT,C,,C,HINX,P,1.0125,B,STNP*4C
$YXXDR,A,-3.0,D,PTCH,A,3.2,D,ROLL*72
$HCHDG,266.2,0.0,E,0.7,W*57
$WIMWV,150.3,R,3.5,N,A*22
$WIMDA,29.9080,I,1.0128,B,28.8,C,,,,,,,55.4,T,56.1,M,3.6,N,1.9,M*23
$HCHDG,266.2,0.0,E,0.7,W*57
$WIMWV,148.5,R,3.5,N,A*2D
$YXXDR,A,-2.8,D,PTCH,A,3.1,D,ROLL*78
$GPRMC,092924,A,3925.6320,N,00019.8625,W,0.0,256.2,200717,0.7,W,D*16
$GPZDA,092924,20,07,2017,00,00*4D
$HCHDG,266.1,0.0,E,0.7,W*54
$WIMWV,145.5,R,3.3,N,A*26
$TIROT,5.8,A*36
$HCHDG,266.1,0.0,E,0.7,W*54
$WIMWV,142.6,R,3.2,N,A*23
$WIMDA,29.9080,I,1.0128,B,28.8,C,,,,,,,47.6,T,48.3,M,3.2,N,1.6,M*24
$YXXDR,A,-3.0,D,PTCH,A,3.2,D,ROLL*72
$HCHDG,266.1,0.0,E,0.7,W*54
$WIMWV,141.2,R,3.1,N,A*27
$GPGGA,092925,3925.6320,N,00019.8625,W,2,8,1.0,1.8,M,,,,*3E
$HCHDG,266.0,0.0,E,0.7,W*55
$WIMWV,140.2,R,3.1,N,A*26
$TIROT,11.7,A*0C
$YXXDR,C,,C,WCHR,C,,C,WCHT,C,,C,HINX,P,1.0125,B,STNP*4C
$YXXDR,A,-3.0,D,PTCH,A,3.2,D,ROLL*72
$GPRMC,092926,A,3925.6321,N,00019.8625,W,0.0,257.0,200717,0.7,W,D*16
$GPZDA,092926,20,07,2017,00,00*4F
$HCHDG,266.0,0.0,E,0.7,W*55
$WIMWV,138.4,R,3.0,N,A*2E
$WIMDA,29.9080,I,1.0128,B,28.8,C,,,,,,,42.4,T,43.1,M,3.0,N,1.5,M*2B
$HCHDG,266.0,0.0,E,0.7,W*55
$WIMWV,136.3,R,3.0,N,A*27
$GPGSV,3,1,9,2,20,46,38,12,18,86,0,14,29,248,39,21,20,175,38*4C
$GPGSV,,2,,25,52,67,43,26,18,289,37,29,81,25,41,31,54,306,37*45
$GPGSV,,3,,32,20,228,36*74
$YXXDR,A,-3.0,D,PTCH,A,3.2,D,ROLL*72
$HCHDG,266.1,0.0,E,0.7,W*54
$WIMWV,137.2,R,3.0,N,A*27
$TIROT,17.5,A*08
$HCHDG,266.1,0.0,E,0.7,W*54
$WIMWV,136.6,R,2.9,N,A*2A
$WIMDA,29.9050,I,1.0127,B,28.8,C,,,,,,,43.1,T,43.8,M,2.9,N,1.5,M*2C
$YXXDR,A,-3.0,D,PTCH,A,3.2,D,ROLL*72
$GPRMC,092928,A,3925.6321,N,00019.8625,W,0.1,256.3,200717,0.7,W,D*1B
$GPZDA,092928,20,07,2017,00,00*41
$HCHDG,266.1,0.0,E,0.7,W*54
$WIMWV,136.8,R,2.8,N,A*25
$GPGGA,092928,3925.6321,N,00019.8625,W,2,8,1.0,1.7,M,,,,*3D
$HCHDG,266.2,0.0,E,0.7,W*57
$WIMWV,138.5,R,2.7,N,A*29
$TIROT,17.5,A*08
$YXXDR,C,,C,WCHR,C,,C,WCHT,C,,C,HINX,P,1.0125,B,STNP*4C
$YXXDR,A,-3.0,D,PTCH,A,3.2,D,ROLL*72
$HCHDG,266.3,0.0,E,0.7,W*56
$WIMWV,140.9,R,2.8,N,A*25
$WIMDA,29.9050,I,1.0127,B,28.8,C,,,,,,,46.5,T,47.2,M,2.8,N,1.4,M*23
$HCHDG,266.3,0.0,E,0.7,W*56
$WIMWV,142.1,R,2.7,N,A*20
$YXXDR,A,-2.8,D,PTCH,A,3.1,D,ROLL*78
$GPRMC,092930,A,3925.6322,N,00019.8625,W,0.0,256.1,200717,0.7,W,D*12
$GPZDA,092930,20,07,2017,00,00*48
$HCHDG,266.4,0.0,E,0.7,W*51
$WIMWV,143.4,R,2.7,N,A*24
$TIROT,5.8,A*36
$HCHDG,266.3,0.0,E,0.7,W*56
$WIMWV,141.1,R,2.5,N,A*21
$WIMDA,29.9021,I,1.0126,B,28.8,C,,,,,,,47.7,T,48.4,M,2.5,N,1.3,M*24
$YXXDR,A,-3.0,D,PTCH,A,3.2,D,ROLL*72
$HCHDG,266.3,0.0,E,0.7,W*56
$WIMWV,139.8,R,2.5,N,A*27
$GPGSV,3,1,9,2,20,46,35,12,18,86,34,14,29,248,35,21,20,175,34*76
$GPGSV,,2,,25,52,67,43,26,18,289,39,29,81,25,40,31,54,306,39*44
$GPGSV,,3,,32,20,228,41*74
$GPGGA,092931,3925.6322,N,00019.8626,W,2,8,0.9,1.6,M,,,,*3C
$HCHDG,266.4,0.0,E,0.7,W*51
$WIMWV,136.1,R,2.5,N,A*21
$TIROT,0.0,A*3B
$YXXDR,C,,C,WCHR,C,,C,WCHT,C,,C,HINX,P,1.0125,B,STNP*4C
$YXXDR,A,-3.0,D,PTCH,A,3.2,D,ROLL*72
$GPRMC,092932,A,3925.6323,N,00019.8626,W,0.1,257.2,200717,0.7,W,D*11
$GPZDA,092932,20,07,2017,00,00*4A
$HCHDG,266.4,0.0,E,0.7,W*51
$WIMWV,134.6,R,2.5,N,A*24
$WIMDA,29.9021,I,1.0126,B,28.9,C,,,,,,,41.6,T,42.3,M,2.5,N,1.3,M*2F
$HCHDG,266.5,0.0,E,0.7,W*50
$WIMWV,135.0,R,2.4,N,A*22
$YXXDR,A,-3.0,D,PTCH,A,3.2,D,ROLL*72
$HCHDG,266.5,0.0,E,0.7,W*50
$WIMWV,135.0,R,2.3,N,A*25
$TIROT,11.7,A*0C
$HCHDG,266.5,0.0,E,0.7,W*50
$WIMWV,137.0,R,2.2,N,A*26
$WIMDA,29.9021,I,1.0126,B,28.9,C,,,,,,,44.2,T,44.9,M,2.2,N,1.1,M*27
$YXXDR,A,-3.0,D,PTCH,A,3.2,D,ROLL*72
$GPRMC,092934,A,3925.6323,N,00019.8626,W,0.1,257.0,200717,0.7,W,D*15
$GPZDA,092934,20,07,2017,00,00*4C
$HCHDG,266.6,0.0,E,0.7,W*53
$WIMWV,139.2,R,2.2,N,A*2A
$GPGGA,092934,3925.6323,N,00019.8626,W,2,8,0.9,1.5,M,,,,*3B
$HCHDG,266.7,0.0,E,0.7,W*52
$WIMWV,139.2,R,2.2,N,A*2A
$TIROT,11.7,A*0C
$YXXDR,C,,C,WCHR,C,,C,WCHT,C,,C,HINX,P,1.0125,B,STNP*4C
$YXXDR,A,-3.0,D,PTCH,A,3.2,D,ROLL*72
$HCHDG,266.7,0.0,E,0.7,W*52
$WIMWV,140.4,R,2.2,N,A*22
$WIMDA,29.9021,I,1.0126,B,28.9,C,,,,,,,46.3,T,47.0,M,2.2,N,1.1,M*2E
$HCHDG,266.8,0.0,E,0.7,W*5D
$GPGSV,3,1,9,2,20,46,35,12,18,86,32,14,29,248,35,21,20,175,35*71
$GPGSV,,2,,25,52,67,43,26,18,289,37,29,81,25,41,31,54,306,40*45
$GPGSV,,3,,32,20,228,40*75
$WIMWV,141.0,R,2.3,N,A*26
$YXXDR,A,-3.0,D,PTCH,A,3.2,D,ROLL*72
$GPRMC,092936,A,3925.6324,N,00019.8626,W,0.0,256.8,200717,0.7,W,D*18
$GPZDA,092936,20,07,2017,00,00*4E
$HCHDG,266.8,0.0,E,0.7,W*5D
$TIROT,5.8,A*36
$WIMWV,141.2,R,2.3,N,A*24
$HCHDG,266.8,0.0,E,0.7,W*5D
$WIMDA,29.9021,I,1.0126,B,28.9,C,,,,,,,48.3,T,49.0,M,2.3,N,1.2,M*2C
$WIMWV,141.7,R,2.3,N,A*21
$YXXDR,A,-3.0,D,PTCH,A,3.2,D,ROLL*72
$HCHDG,266.8,0.0,E,0.7,W*5D
$WIMWV,142.1,R,2.3,N,A*24
$GPGGA,092937,3925.6324,N,00019.8626,W,2,8,0.9,1.4,M,,,,*3E
$HCHDG,266.8,0.0,E,0.7,W*5D
$YXXDR,C,,C,WCHR,C,,C,WCHT,C,,C,HINX,P,1.0125,B,STNP*4C
$WIMWV,144.1,R,2.3,N,A*22
$TIROT,-5.8,A*1B
$YXXDR,A,-2.8,D,PTCH,A,3.2,D,ROLL*7B
$GPRMC,092938,A,3925.6324,N,00019.8625,W,0.0,257.0,200717,0.7,W,D*1C
$GPZDA,092938,20,07,2017,00,00*40
$HCHDG,266.7,0.0,E,0.7,W*52
$WIMDA,29.9021,I,1.0126,B,28.9,C,,,,,,,49.1,T,49.8,M,2.2,N,1.1,M*25
$WIMWV,143.2,R,2.2,N,A*27
$HCHDG,266.7,0.0,E,0.7,W*52
$WIMWV,142.1,R,2.1,N,A*26
$YXXDR,A,-2.8,D,PTCH,A,3.2,D,ROLL*7B
$HCHDG,266.8,0.0,E,0.7,W*5D
$WIMWV,140.8,R,2.0,N,A*2C
$TIROT,5.8,A*36
$HCHDG,266.8,0.0,E,0.7,W*5D
$WIMDA,29.9050,I,1.0127,B,28.9,C,,,,,,,46.4,T,47.1,M,2.0,N,1.0,M*2C
$WIMWV,140.3,R,2.0,N,A*27
$YXXDR,A,-3.0,D,PTCH,A,3.2,D,ROLL*72
$GPRMC,092940,A,3925.6325,N,00019.8625,W,0.0,257.0,200717,0.7,W,D*12
$GPZDA,092940,20,07,2017,00,00*4F
$GPGSV,3,1,9,2,20,46,38,12,18,86,28,14,29,248,36,21,20,175,31*70
$GPGSV,,2,,25,52,67,42,26,18,289,38,29,81,25,41,31,54,306,40*4B
$GPGSV,,3,,32,20,228,39*7B
$HCHDG,266.8,0.0,E,0.7,W*5D
$WIMWV,138.7,R,1.8,N,A*27
$GPGGA,092940,3925.6325,N,00019.8625,W,2,8,1.0,1.3,M,,,,*33
$YXXDR,C,,C,WCHR,C,,C,WCHT,C,,C,HINX,P,1.0126,B,STNP*4F
$TIROT,5.8,A*36
$HCHDG,266.8,0.0,E,0.7,W*5D
$YXXDR,A,-3.0,D,PTCH,A,3.2,D,ROLL*72
$WIMWV,137.6,R,1.8,N,A*29
$WIMDA,29.9021,I,1.0126,B,28.9,C,,,,,,,42.2,T,42.9,M,1.8,N,0.9,M*27
$HCHDG,266.7,0.0,E,0.7,W*52
$WIMWV,134.9,R,1.8,N,A*25
$HCHDG,266.7,0.0,E,0.7,W*52
$YXXDR,A,-2.8,D,PTCH,A,3.2,D,ROLL*7B
$WIMWV,131.8,R,1.9,N,A*20
$GPRMC,092942,A,3925.6324,N,00019.8625,W,0.0,257.0,200717,0.7,W,D*11
$GPZDA,092942,20,07,2017,00,00*4D
$TIROT,11.7,A*0C
$HCHDG,266.6,0.0,E,0.7,W*53
$WIMWV,130.2,R,2.0,N,A*21
$WIMDA,29.9021,I,1.0126,B,28.9,C,,,,,,,35.0,T,35.7,M,2.0,N,1.0,M*28
$HCHDG,266.6,0.0,E,0.7,W*53
$YXXDR,A,-3.0,D,PTCH,A,3.2,D,ROLL*72
$WIMWV,128.0,R,2.1,N,A*2B
